ODOM 0 0 0 0 0 0 0 pippo 0
ODOM 0.098412 6.5e-05 0 0 0 0 -0.042 pippo -0.042
ODOM 0.19145 -0.000198 0 0 0 0 -0.082 pippo -0.082
ODOM 0.28356 -0.001352 -0.001465 0 0 0 -0.121999 pippo -0.121999
ODOM 0.371133 0.003763 -0.001465 0 0 0 -0.159999 pippo -0.159999
ODOM 0.465384 -0.004672 -0.001465 0 0 0 -0.201999 pippo -0.201999
ODOM 0.558685 -0.00102 -0.001953 0 0 0 -0.242999 pippo -0.242999
ODOM 0.654228 0.007173 -0.001953 0 0 0 -0.282999 pippo -0.282999
ODOM 0.742647 -0.00956 -0.001953 0 0 0 -0.324999 pippo -0.324999
ODOM 0.923934 0.000826 -0.001465 0 0 0 -0.405 pippo -0.405
ODOM 1.02945 -0.007331 -0.003418 0 0 0 -0.445999 pippo -0.445999
FLASER 180 1.33 1.38 1.33 1.38 1.38 1.43 1.43 1.38 1.38 1.27 1.02 0.97 0.92 0.9 0.9 0.9 0.95 0.95 0.95 0.95 0.95 1 1 0.95 1 1.05 1 1 1.05 1 1.05 1.05 1.1 1.1 1.1 1.15 1.15 1.2 2.6 2.65 2.65 2.75 6.92 10.32 10.52 10.72 4.87 4.57 3.57 3.62 3.72 3.82 3.87 4.02 4.02 4.12 4.07 4.02 4.12 4.27 4.27 4.22 4.22 4.17 4.17 4.12 4.12 4.37 4.72 5.02 5.27 7.37 7.87 8.42 9.07 9.72 10.77 12.77 13.32 14.07 14.02 13.97 13.97 14.12 14.12 14.12 14.12 14.17 14.17 13.97 13.92 13.97 13.97 14.02 12.92 11.22 10.12 9.52 8.42 7.87 7.27 6.97 6.67 6.17 5.92 5.57 5.47 5.12 4.82 4.52 4.47 4.27 4.07 4.02 3.97 3.77 3.52 3.47 3.42 3.42 3.32 3.17 3.02 3.02 2.97 2.92 2.77 2.77 1 0.95 0.95 0.9 0.9 0.9 0.85 0.85 0.8 0.85 0.8 0.8 0.75 0.85 0.8 0.75 0.75 0.75 0.7 0.75 0.75 0.75 0.75 0.7 0.65 0.7 0.7 0.7 0.7 0.72 0.72 0.77 0.87 0.97 1.07 1.12 1.25 1.28 1.23 1.18 1.05 1.15 1.23 1.28 1.23 1.28 1.23 1.23 1.23 1.28 1.23 1.23 1.00824 -0.0167813 0.00595701 1.00824 -0.0167813 0.00595701 -0.445999 pippo -0.445999
ODOM 1.00824 -0.0167813 0.00595701 0 0 0 -0.601507 pippo -0.601507
NEFF 200
ODOM 1.11213 -0.00497481 0.00717801 0 0 0 -0.484999 pippo -0.484999
ODOM 1.31149 -0.0130302 0.00815401 0 0 0 -0.564 pippo -0.564
ODOM 1.40944 -0.00246049 0.00815401 0 0 0 -0.605 pippo -0.605
ODOM 1.49728 -0.0113834 0.00730001 0 0 0 -0.645 pippo -0.645
ODOM 1.59738 -0.00478869 0.00681201 0 0 0 -0.687 pippo -0.687
ODOM 1.6981 -0.0119578 0.00681201 0 0 0 -0.726 pippo -0.726
ODOM 1.79043 -0.0114361 0.00681201 0 0 0 -0.77 pippo -0.77
ODOM 1.88907 -0.0221159 0.00852101 0 0 0 -0.818999 pippo -0.818999
ODOM 1.99794 -0.00949168 0.00852101 0 0 0 -0.865999 pippo -0.865999
ODOM 2.12332 0.000893169 0.00852101 0 0 0 -0.913 pippo -0.913
FLASER 180 1.94 1.99 1.99 1.99 1.99 2.04 1.99 1.99 2.04 2.04 2.04 2.09 2.09 2.09 2.09 2.09 2.09 2.14 2.14 2.14 2.21 7.91 7.91 7.81 6.01 5.96 5.61 5.61 5.81 5.81 5.96 6.11 2.86 2.81 2.81 2.86 2.91 2.96 3.06 3.06 3.11 3.11 3.21 3.26 3.21 3.16 3.16 3.16 3.26 3.31 3.41 3.31 3.31 3.26 3.26 3.21 3.21 3.11 3.16 3.31 3.51 3.61 3.81 3.96 4.06 5.61 5.91 6.16 6.56 6.91 7.31 7.71 8.21 8.81 9.61 11.71 11.81 12.61 12.96 12.91 12.91 12.86 13.11 13.06 13.06 13.01 13.01 13.06 13.06 12.86 12.86 12.86 12.91 12.91 11.86 10.71 9.51 8.81 7.96 7.36 6.96 6.61 6.16 5.76 5.61 5.11 5.11 4.76 4.51 4.36 4.21 4.01 3.96 3.86 3.76 3.51 3.51 3.36 3.26 3.26 3.01 3.06 3.01 2.86 2.91 2.76 2.71 2.56 2.56 2.56 2.51 2.46 2.46 2.36 2.36 2.31 2.26 2.16 2.16 2.16 24.61 2.11 2.11 2.06 24.91 2.01 1.96 2.01 2.06 1.96 1.86 1.86 1.86 1.86 1.91 2.11 1.81 1.81 1.81 1.86 27.76 1.76 1.81 1.76 1.76 21.51 1.81 1.71 1.71 1.66 1.71 1.71 1.96 1.81 1.71 1.71 1.71 1.71 1.94 1.76 2.16565 -0.0177446 0.00852101 2.16565 -0.0177446 0.00852101 -0.913 pippo -0.913
ODOM 2.16565 -0.0177446 0.00852101 0 0 0 -49.8234 pippo -49.8234
NEFF 199.983
ODOM 2.28033 -0.0142774 0.014502 0 0 0 -0.964 pippo -0.964
ODOM 2.38664 -0.0110956 0.015723 0 0 0 -1.008 pippo -1.008
ODOM 2.50367 -0.00511724 0.019873 0 0 0 -1.058 pippo -1.058
ODOM 2.61948 -0.0034834 0.021948 0 0 0 -1.104 pippo -1.104
ODOM 2.74806 -0.00879226 0.025854 0 0 0 -1.152 pippo -1.152
ODOM 2.84191 -0.0109555 0.025854 0 0 0 -1.202 pippo -1.202
ODOM 2.96162 -0.0126573 0.025854 0 0 0 -1.249 pippo -1.249
ODOM 3.07356 -0.00504654 0.026831 0 0 0 -1.296 pippo -1.296
ODOM 3.17675 -0.00600024 0.026953 0 0 0 -1.343 pippo -1.343
FLASER 180 2.51 2.51 2.56 7.21 2.49 2.49 2.49 2.44 2.61 7.36 7.41 2.41 2.36 2.36 2.36 2.41 2.41 2.46 2.51 2.51 2.51 2.51 2.51 2.61 2.61 2.61 2.66 2.61 2.61 2.51 2.49 2.54 2.59 2.64 2.69 2.66 2.66 2.61 2.56 2.51 2.46 2.46 2.41 2.36 2.36 2.41 2.46 2.56 2.61 2.66 2.86 2.86 2.96 3.01 3.11 3.21 3.26 4.41 4.61 4.76 4.91 5.11 5.31 5.51 5.81 6.06 6.36 6.71 7.11 7.41 7.86 8.46 9.16 10.76 10.81 11.66 11.96 11.91 11.91 11.86 11.86 12.01 12.01 12.06 12.06 12.01 12.01 12.01 11.76 11.81 11.86 11.86 11.91 11.41 10.26 9.11 8.56 7.91 7.36 6.91 6.26 5.91 5.71 5.21 5.06 4.76 4.71 4.51 4.16 4.16 3.96 3.81 3.61 3.66 3.46 3.36 3.21 3.11 3.11 2.96 3.01 2.81 2.81 2.66 2.66 2.66 2.56 2.51 3.16 2.41 2.41 3.26 2.16 2.21 2.21 3.51 2.16 2.11 2.11 23.76 2.06 2.01 2.06 24.11 1.96 1.91 1.91 1.91 1.91 51.11 1.86 1.81 1.81 1.81 51.06 1.81 1.71 1.71 1.76 27.66 1.81 1.71 1.61 1.66 1.66 1.71 21.51 21.36 1.66 1.66 1.66 1.66 26.66 22.91 1.61 1.66 1.66 1.61 21.16 1.66 3.18767 -0.022352 0.023828 3.18767 -0.022352 0.023828 -1.343 pippo -1.343
ODOM 3.18767 -0.022352 0.023828 0 0 0 2.97126 pippo 2.97126
NEFF 199.856
ODOM 3.29605 -0.0173985 0.022852 0 0 0 -1.392 pippo -1.392
ODOM 3.40831 -0.0114608 0.022852 0 0 0 -1.438 pippo -1.438
ODOM 3.54227 -0.00554038 0.030664 0 0 0 -1.486 pippo -1.486
ODOM 3.63241 -0.00913813 0.032617 0 0 0 -1.536 pippo -1.536
ODOM 3.74791 -0.0139243 0.032617 0 0 0 -1.573 pippo -1.573
ODOM 3.85069 -0.0120259 0.032617 0 0 0 -1.628 pippo -1.628
ODOM 3.97335 -0.00532314 0.032617 0 0 0 -1.676 pippo -1.676
ODOM 4.08528 -0.0153598 0.032617 0 0 0 -1.723 pippo -1.723
ODOM 4.18305 0.00621271 0.032129 0 0 0 -1.771 pippo -1.771
ODOM 4.29747 0.00623879 0.032617 0 0 0 -1.82 pippo -1.82
FLASER 180 2.31 2.31 2.26 2.16 2.19 2.19 2.19 2.24 2.19 2.19 2.24 2.16 2.11 2.01 1.91 1.81 1.81 1.71 1.71 1.76 1.76 1.81 1.81 1.86 1.91 1.91 1.91 1.96 1.96 2.11 2.11 2.11 2.06 2.11 2.16 2.21 2.31 2.26 2.31 2.36 2.36 2.41 3.11 3.16 3.26 3.41 3.46 3.56 3.61 3.71 3.81 3.86 4.01 4.11 4.26 4.41 4.51 4.71 4.86 5.01 5.26 5.46 5.66 5.96 6.11 6.41 6.81 7.16 7.61 8.11 9.71 9.71 10.01 10.76 10.91 10.86 10.81 10.81 10.81 10.96 10.91 10.96 10.96 10.91 10.96 10.91 10.91 10.71 10.71 10.76 10.76 10.81 10.81 10.21 9.11 8.36 7.51 6.91 6.61 6.21 5.76 5.56 5.16 4.91 4.66 4.51 4.16 4.11 3.96 3.81 3.61 3.61 3.46 3.31 3.16 3.11 3.16 2.91 16.36 2.81 2.66 2.61 2.61 51.06 2.51 2.51 2.41 2.36 2.51 2.21 2.16 2.21 2.31 2.31 2.06 2.06 2.39 2.06 1.96 1.96 2.39 1.96 1.81 1.81 1.86 1.86 2.49 1.86 1.76 1.76 1.81 2.96 51.06 1.71 1.66 1.66 22.56 22.01 1.66 1.61 1.56 1.61 1.56 1.66 26.86 23.21 1.61 1.56 1.61 1.56 21.16 21.26 1.56 1.56 1.56 1.56 22.86 26.46 1.61 1.56 4.31781 -0.012578 0.0388555 4.31781 -0.012578 0.0388555 -1.82 pippo -1.82
ODOM 4.31781 -0.012578 0.0388555 0 0 0 2.62375 pippo 2.62375
NEFF 199.802
ODOM 4.43181 -0.00957213 0.0388555 0 0 0 -1.865 pippo -1.865
ODOM 4.53921 -0.00462656 0.0388555 0 0 0 -1.915 pippo -1.915
ODOM 4.66671 -0.00802561 0.0398325 0 0 0 4.29497e+09 pippo 4.29497e+09
ODOM 4.76926 0.003686 0.0398325 0 0 0 4.29497e+09 pippo 4.29497e+09
ODOM 4.89074 0.0136118 0.0398325 0 0 0 4.29497e+09 pippo 4.29497e+09
ODOM 4.98352 0.0152095 0.0405645 0 0 0 4.29497e+09 pippo 4.29497e+09
ODOM 5.10325 0.0102004 0.0405645 0 0 0 4.29497e+09 pippo 4.29497e+09
ODOM 5.22054 0.020825 0.0405645 0 0 0 4.29497e+09 pippo 4.29497e+09
ODOM 5.30535 0.0271936 0.0405645 0 0 0 4.29497e+09 pippo 4.29497e+09
ODOM 5.45066 0.0332957 0.0404425 0 0 0 4.29497e+09 pippo 4.29497e+09
FLASER 180 1.76 1.79 1.76 1.74 1.79 1.79 1.76 1.96 1.86 1.81 1.76 1.81 1.81 1.86 1.81 1.86 2.39 2.39 2.39 2.44 2.44 2.49 2.49 2.54 2.54 2.59 2.64 2.64 2.69 2.74 2.79 2.79 2.84 2.89 2.89 2.96 2.96 3.06 3.16 3.16 3.21 3.26 3.31 3.36 3.51 3.56 3.61 3.71 3.81 3.91 3.96 4.11 4.16 4.36 4.51 4.61 4.76 4.91 5.11 5.26 5.46 5.71 5.91 6.16 6.56 6.91 7.31 8.61 8.61 8.66 9.21 9.81 9.81 9.81 9.76 9.71 9.71 9.66 9.91 9.86 9.86 9.81 9.86 9.81 9.81 9.81 9.66 9.61 9.61 9.61 9.66 9.71 9.71 9.16 8.46 7.46 6.91 6.41 6.16 5.71 5.26 5.11 4.71 4.56 4.36 4.11 4.01 3.86 3.66 3.51 3.41 3.31 3.11 3.06 3.01 2.91 2.81 2.76 2.61 2.61 2.56 2.51 2.46 2.41 2.36 2.31 2.21 2.11 2.11 2.16 2.11 2.01 2.01 2.01 2.01 1.91 1.91 1.91 1.86 1.76 1.76 1.76 1.76 1.96 1.76 1.71 1.71 1.66 1.84 1.84 1.61 1.66 1.56 1.61 1.74 1.69 1.56 1.51 1.51 1.56 1.51 1.69 1.79 1.74 1.46 1.46 1.51 1.56 1.89 1.94 1.51 1.51 1.46 1.46 21.31 26.36 26.41 1.46 1.46 1.41 5.42061 0.0160025 0.0468998 5.42061 0.0160025 0.0468998 4.29497e+09 pippo 4.29497e+09
ODOM 5.42061 0.0160025 0.0468998 0 0 0 -3.98826 pippo -3.98826
NEFF 199.541
ODOM 5.5174 0.0295706 0.0488528 0 0 0 4.29497e+09 pippo 4.29497e+09
ODOM 5.63685 0.0215611 0.0490968 0 0 0 4.29497e+09 pippo 4.29497e+09
ODOM 5.74789 0.0335988 0.0490968 0 0 0 4.29497e+09 pippo 4.29497e+09
ODOM 5.88097 0.0344141 0.0487218 0 0 0 4.29497e+09 pippo 4.29497e+09
ODOM 5.98868 0.0382284 0.0490138 0 0 0 4.29497e+09 pippo 4.29497e+09
ODOM 6.10412 0.0157184 0.0271078 0 0 0 4.29497e+09 pippo 4.29497e+09
ODOM 6.21556 0.0258744 -0.00438615 0 0 0 4.29497e+09 pippo 4.29497e+09
ODOM 6.32576 0.0323583 -0.00646115 0 0 0 4.29497e+09 pippo 4.29497e+09
ODOM 6.4177 0.0398764 -0.00646115 0 0 0 4.29497e+09 pippo 4.29497e+09
FLASER 180 2.3 2.3 2.3 2.3 2.3 2.3 2.3 2.3 2.35 2.35 2.4 2.4 2.4 2.4 2.4 2.45 2.45 2.45 2.45 2.5 2.5 2.55 2.55 2.55 2.55 2.6 2.65 2.7 2.7 2.75 2.75 2.8 2.8 2.85 2.87 2.92 2.92 2.97 3.07 3.07 3.17 3.22 3.27 3.32 3.37 3.42 3.52 3.57 3.67 3.72 3.77 3.97 4.02 4.12 4.22 4.27 4.42 4.57 4.72 4.87 5.02 5.22 5.42 5.67 5.92 6.17 7.82 7.72 7.72 7.77 7.82 8.32 8.77 8.87 8.82 8.82 8.82 8.72 8.72 8.77 8.87 8.87 8.87 8.82 8.77 8.77 8.77 8.77 8.82 8.62 8.62 8.62 8.62 8.67 8.67 8.67 8.67 8.17 7.42 6.87 6.37 5.92 5.27 5.17 4.82 4.57 4.27 4.27 4.07 3.72 3.72 3.52 3.42 3.17 3.17 3.07 3.02 2.87 2.72 2.67 2.72 2.57 2.52 2.52 2.37 2.67 2.22 2.22 2.22 14.62 2.12 2.07 51.07 1.97 1.92 1.97 51.07 1.82 1.77 1.82 1.77 51.07 51.07 1.72 1.67 1.72 21.27 21.57 1.62 1.62 1.57 22.22 22.37 1.62 1.52 1.47 1.52 1.52 1.62 27.62 27.57 1.52 1.47 1.42 1.47 21.37 2.22 2.02 1.42 1.42 1.42 1.47 1.75 1.7 1.65 1.42 1.32 1.37 1.37 1.42 6.42934 0.0136978 -0.0106739 6.42934 0.0136978 -0.0106739 4.29497e+09 pippo 4.29497e+09
ODOM 6.42934 0.0136978 -0.0106739 0 0 0 -5.92047 pippo -5.92047
NEFF 199.246
ODOM 6.55127 0.00632737 -0.0105519 0 0 0 4.29497e+09 pippo 4.29497e+09
ODOM 6.7671 0.014964 -0.0105519 0 0 0 4.29497e+09 pippo 4.29497e+09
ODOM 6.89533 -0.00207664 -0.00664588 0 0 0 4.29497e+09 pippo 4.29497e+09
ODOM 6.99986 0.00319988 -0.00615788 0 0 0 4.29497e+09 pippo 4.29497e+09
ODOM 7.10259 0.00159122 -0.00640188 0 0 0 4.29497e+09 pippo 4.29497e+09
ODOM 7.23008 0.00145345 -0.00835488 0 0 0 4.29497e+09 pippo 4.29497e+09
ODOM 7.34873 -0.000362645 -0.00835488 0 0 0 4.29497e+09 pippo 4.29497e+09
ODOM 7.45328 -0.0113986 -0.00713388 0 0 0 4.29497e+09 pippo 4.29497e+09
FLASER 180 2.34 2.34 2.34 2.34 2.39 2.34 2.34 2.34 2.39 2.39 2.39 2.39 2.39 2.44 2.44 2.44 2.44 2.49 2.54 2.54 2.49 2.54 2.59 2.59 2.64 2.69 2.64 2.69 2.69 2.79 2.84 2.79 2.84 2.89 2.94 2.96 3.01 3.06 3.11 3.11 3.16 3.26 3.31 3.36 3.41 3.46 3.56 3.61 3.66 3.76 3.86 3.96 4.06 4.16 4.26 4.36 4.51 4.71 4.86 5.01 5.21 5.36 6.96 6.86 6.76 6.76 6.81 6.91 7.26 7.56 7.91 7.86 7.86 7.81 7.81 7.71 7.71 7.66 7.91 7.86 7.86 7.81 7.81 7.81 7.76 7.81 7.76 7.76 7.81 7.61 7.61 7.56 7.61 7.61 7.61 7.66 7.71 7.71 7.16 6.61 6.01 5.51 5.26 4.96 4.71 4.36 4.26 4.06 3.81 3.66 3.56 3.31 3.31 3.16 3.16 2.96 2.76 2.76 2.86 2.61 2.71 2.51 2.51 2.31 2.31 2.31 2.21 2.16 2.16 2.11 2.06 2.01 3.81 1.86 1.86 1.81 1.91 16.46 1.76 1.76 1.76 17.11 1.71 1.66 1.66 1.66 21.01 20.86 1.51 1.51 1.51 1.56 1.51 21.76 21.91 1.56 1.46 1.46 1.46 23.06 26.41 27.36 1.41 1.41 1.41 1.46 51.06 21.26 1.41 1.36 1.31 1.31 1.36 1.36 1.36 22.61 26.21 22.61 1.41 1.36 7.41738 -0.0225094 -0.00713008 7.41738 -0.0225094 -0.00713008 4.29497e+09 pippo 4.29497e+09
ODOM 7.41738 -0.0225094 -0.00713008 0 0 0 -46.7348 pippo -46.7348
NEFF 199.016
ODOM 7.5207 -0.0176512 -0.00615408 0 0 0 4.29497e+09 pippo 4.29497e+09
ODOM 7.63349 -0.0146558 -0.00615408 0 0 0 4.29497e+09 pippo 4.29497e+09
ODOM 7.74115 -0.0173825 -0.00615408 0 0 0 4.29497e+09 pippo 4.29497e+09
ODOM 7.85823 -0.0259932 -0.00420108 0 0 0 4.29497e+09 pippo 4.29497e+09
ODOM 7.97734 -0.0252279 -0.00371208 0 0 0 4.29497e+09 pippo 4.29497e+09
ODOM 8.0815 -0.0253999 -0.00371208 0 0 0 4.29497e+09 pippo 4.29497e+09
ODOM 8.19756 -0.0278629 -0.00371208 0 0 0 4.29497e+09 pippo 4.29497e+09
ODOM 8.31717 -0.0391114 -0.00371208 0 0 0 4.29497e+09 pippo 4.29497e+09
ODOM 8.42947 -0.0371583 -0.00371208 0 0 0 4.29497e+09 pippo 4.29497e+09
FLASER 180 2.34 2.39 2.39 2.39 2.39 2.39 2.39 2.39 2.44 2.39 2.44 2.44 2.44 2.44 2.49 2.49 2.49 2.54 2.54 2.59 2.59 2.59 2.64 2.64 2.69 2.69 2.74 2.74 2.79 2.84 2.84 2.81 2.84 2.89 2.91 3.01 3.01 3.06 3.16 3.16 3.21 3.26 3.36 3.41 3.46 3.51 3.61 3.66 3.76 3.86 3.96 4.11 4.16 4.31 4.41 6.26 6.16 6.11 5.96 5.91 5.86 5.81 5.91 5.91 6.16 6.41 6.66 7.01 6.96 6.91 6.86 6.81 6.76 6.76 6.71 6.71 6.86 6.86 6.91 6.81 6.81 6.76 6.76 6.76 6.81 6.81 6.81 6.81 6.76 6.56 6.56 6.56 6.56 6.56 6.56 6.61 6.66 6.66 6.71 6.11 5.71 5.51 5.06 4.86 4.51 4.31 4.01 3.91 3.81 3.51 3.41 3.41 3.26 3.11 2.91 2.86 2.76 2.71 2.61 2.61 2.46 2.41 2.31 2.31 2.21 2.31 2.11 2.11 2.21 1.96 1.96 1.91 1.91 2.49 1.81 1.81 1.81 2.54 1.76 1.71 1.71 2.66 2.66 1.56 1.56 1.56 1.56 1.56 20.91 20.41 1.51 1.46 1.46 1.51 21.06 21.21 1.41 1.36 1.41 1.41 21.76 22.36 1.41 1.41 1.36 1.31 1.31 1.31 1.36 21.26 20.96 20.91 1.36 1.31 1.31 1.31 22.56 26.21 22.61 1.36 8.43447 -0.0363718 -0.00831409 8.43447 -0.0363718 -0.00831409 4.29497e+09 pippo 4.29497e+09
ODOM 8.43447 -0.0363718 -0.00831409 0 0 0 3.07986 pippo 3.07986
NEFF 199.026
ODOM 8.53508 -0.0371222 -0.00831409 0 0 0 4.29497e+09 pippo 4.29497e+09
ODOM 8.64884 -0.0375013 -0.00831409 0 0 0 4.29497e+09 pippo 4.29497e+09
ODOM 8.75861 -0.0239981 -0.00831409 0 0 0 4.29497e+09 pippo 4.29497e+09
ODOM 8.88795 -0.0363109 -0.00831409 0 0 0 4.29497e+09 pippo 4.29497e+09
ODOM 8.97978 -0.0402514 -0.00733809 0 0 0 4.29497e+09 pippo 4.29497e+09
ODOM 9.09827 -0.0387975 -0.00733809 0 0 0 4.29497e+09 pippo 4.29497e+09
ODOM 9.3321 -0.0329954 -0.00636109 0 0 0 4.29497e+09 pippo 4.29497e+09
ODOM 9.43977 -0.0280609 -0.00848309 0 0 0 4.29497e+09 pippo 4.29497e+09
FLASER 180 2.39 2.44 2.39 2.39 2.44 2.44 2.44 2.49 2.49 2.49 2.49 2.49 2.49 2.49 2.49 2.54 2.54 2.54 2.59 2.59 2.64 2.64 2.64 2.64 2.69 2.74 2.74 2.74 2.79 2.84 2.86 2.91 2.96 2.96 3.01 3.06 3.11 3.16 3.21 3.26 3.31 3.36 3.51 3.51 3.61 3.66 5.91 5.81 5.76 5.36 5.31 5.21 5.11 5.11 5.01 5.01 5.01 5.01 5.11 5.31 5.51 5.71 5.86 6.06 6.01 5.96 5.91 5.91 5.81 5.81 5.81 5.71 5.76 5.91 5.91 5.86 5.96 5.86 5.86 5.86 5.81 5.81 5.81 5.81 5.81 5.81 5.81 5.81 5.56 5.56 5.56 5.56 5.56 5.56 5.61 5.61 5.61 5.66 5.66 5.66 5.41 5.06 4.61 4.56 4.21 4.06 3.81 3.56 3.51 3.36 3.26 3.01 2.96 2.91 2.81 2.76 2.66 2.51 2.46 2.46 2.36 2.26 2.26 2.21 2.21 2.06 2.01 2.01 2.01 1.91 1.91 1.86 1.86 1.76 1.76 1.71 1.76 1.66 1.61 1.56 1.61 1.61 1.61 1.56 1.56 1.56 1.51 1.51 1.69 1.46 1.41 1.46 1.41 1.41 1.89 1.41 1.36 1.31 1.31 1.36 1.31 1.31 1.41 22.36 1.41 1.31 1.31 1.31 1.31 1.31 26.36 21.21 1.26 1.31 1.26 1.26 1.31 26.21 26.21 1.31 9.42799 -0.0751094 0.00870441 9.42799 -0.0751094 0.00870441 4.29497e+09 pippo 4.29497e+09
ODOM 9.42799 -0.0751094 0.00870441 0 0 0 -7.14232 pippo -7.14232
NEFF 198.981
ODOM 9.54413 -0.0822142 0.00983241 0 0 0 4.29497e+09 pippo 4.29497e+09
ODOM 9.64626 -0.0863867 -0.00554259 0 0 0 4.29497e+09 pippo 4.29497e+09
ODOM 9.75381 -0.0857712 -0.0325426 0 0 0 4.29497e+09 pippo 4.29497e+09
ODOM 9.87368 -0.0993174 -0.0628336 0 0 0 4.29497e+09 pippo 4.29497e+09
ODOM 9.98702 -0.10056 -0.0908336 0 0 0 4.29497e+09 pippo 4.29497e+09
ODOM 10.1095 -0.106819 -0.121834 0 0 0 4.29497e+09 pippo 4.29497e+09
ODOM 10.2152 -0.127598 -0.146928 0 0 0 4.29497e+09 pippo 4.29497e+09
ODOM 10.3165 -0.157485 -0.175928 0 0 0 4.29497e+09 pippo 4.29497e+09
ODOM 10.4232 -0.170483 -0.206928 0 0 0 4.29497e+09 pippo 4.29497e+09
FLASER 180 2.39 2.34 2.34 2.34 2.29 2.34 2.34 2.34 2.34 2.34 2.29 2.34 2.34 2.34 2.34 2.34 2.39 2.34 2.39 2.39 2.39 2.39 2.44 2.44 2.44 2.49 2.44 2.44 2.49 2.49 2.49 2.54 2.59 2.64 2.59 2.69 2.69 2.69 2.74 2.79 2.79 2.84 2.84 2.84 2.86 2.91 3.21 5.66 5.56 5.41 5.36 5.16 5.11 5.01 4.66 4.56 4.46 4.36 4.26 4.26 4.11 4.16 4.16 4.11 4.21 4.26 4.41 4.56 4.66 4.76 4.91 5.06 5.11 5.01 5.01 4.96 4.91 4.91 4.86 4.81 4.76 4.76 4.76 4.86 4.96 4.91 4.91 4.91 4.86 4.86 4.81 4.81 4.81 4.81 4.81 4.81 4.81 4.76 4.76 4.76 4.81 4.76 4.51 4.56 4.56 4.56 4.56 4.56 4.56 4.61 4.61 4.66 4.66 4.71 4.71 4.71 4.51 4.26 4.11 3.96 3.71 3.56 3.41 3.21 3.16 3.11 2.91 2.91 2.71 2.66 2.61 2.51 2.46 2.41 2.36 2.31 2.21 2.16 2.16 2.11 2.06 2.01 2.01 1.96 1.91 1.86 1.86 1.76 1.71 1.71 1.76 1.71 1.66 1.66 1.66 1.61 1.56 1.56 1.56 1.56 1.56 1.51 1.51 1.51 1.51 1.36 1.41 1.46 1.41 1.41 1.41 1.41 1.41 1.36 1.41 1.36 1.36 1.36 1.31 1.36 10.4283 -0.17998 -0.213693 10.4283 -0.17998 -0.213693 4.29497e+09 pippo 4.29497e+09
ODOM 10.4283 -0.17998 -0.213693 0 0 0 -9.86122 pippo -9.86122
NEFF 199.062
ODOM 10.5527 -0.207323 -0.243059 0 0 0 4.29497e+09 pippo 4.29497e+09
ODOM 10.6588 -0.240226 -0.272059 0 0 0 4.29497e+09 pippo 4.29497e+09
ODOM 10.7559 -0.274656 -0.305088 0 0 0 4.29497e+09 pippo 4.29497e+09
ODOM 10.8725 -0.303767 -0.335088 0 0 0 4.29497e+09 pippo 4.29497e+09
ODOM 10.9764 -0.346625 -0.365431 0 0 0 4.29497e+09 pippo 4.29497e+09
ODOM 11.0755 -0.394615 -0.37715 0 0 0 4.29497e+09 pippo 4.29497e+09
ODOM 11.2802 -0.477148 -0.383009 0 0 0 4.29497e+09 pippo 4.29497e+09
ODOM 11.4968 -0.556448 -0.383009 0 0 0 4.29497e+09 pippo 4.29497e+09
FLASER 180 2.14 2.09 2.09 2.09 2.09 2.09 2.09 2.04 2.09 2.04 2.04 2.04 2.04 2.04 1.99 2.04 2.04 2.04 2.04 2.09 2.04 2.09 2.04 2.04 2.09 2.09 2.09 2.09 2.14 2.09 2.09 2.09 2.14 2.14 2.14 2.14 2.14 2.14 2.36 2.31 6.61 6.36 6.16 5.86 5.66 5.46 5.31 5.06 4.96 4.76 4.66 4.51 4.36 4.26 4.21 3.76 3.61 3.51 3.41 3.36 3.26 3.16 3.11 3.11 3.16 3.06 3.06 3.11 3.21 3.21 3.31 3.41 3.46 3.56 3.66 3.71 3.81 3.91 4.06 3.96 3.96 3.91 3.81 3.81 3.81 3.76 3.76 3.71 3.66 3.66 3.66 3.61 3.61 3.76 3.86 3.81 3.81 3.76 3.76 3.71 3.71 3.71 3.71 3.71 3.66 3.71 3.71 3.71 3.66 3.66 3.66 3.66 3.71 3.71 3.66 3.71 3.71 3.51 3.51 3.51 3.51 3.56 3.56 3.56 3.56 3.61 3.61 3.66 3.66 3.66 3.71 3.76 3.76 3.81 3.86 3.71 3.61 3.41 3.36 3.31 3.21 3.11 3.01 2.91 2.86 2.91 2.76 2.76 2.61 2.61 2.46 2.41 2.41 2.46 2.31 2.31 2.26 2.21 2.16 2.16 10.51 2.06 2.01 2.06 2.06 11.16 1.96 1.96 1.91 13.66 1.96 1.91 1.81 1.86 15.21 1.86 1.71 1.71 1.76 1.76 11.5057 -0.553593 -0.388938 11.5057 -0.553593 -0.388938 4.29497e+09 pippo 4.29497e+09
ODOM 11.5057 -0.553593 -0.388938 0 0 0 -46.4691 pippo -46.4691
NEFF 199.103
ODOM 11.7204 -0.63976 -0.392845 0 0 0 4.29497e+09 pippo 4.29497e+09
ODOM 11.9266 -0.730442 -0.392845 0 0 0 4.29497e+09 pippo 4.29497e+09
ODOM 12.1374 -0.821417 -0.392845 0 0 0 4.29497e+09 pippo 4.29497e+09
ODOM 12.2387 -0.852532 -0.391056 0 0 0 4.29497e+09 pippo 4.29497e+09
ODOM 12.3333 -0.884431 -0.391181 0 0 0 4.29497e+09 pippo 4.29497e+09
ODOM 12.4395 -0.93956 -0.421399 0 0 0 4.29497e+09 pippo 4.29497e+09
FLASER 180 1.84 1.79 1.79 1.79 1.79 1.74 1.74 1.74 1.79 1.74 1.74 1.69 1.74 1.74 1.81 1.86 1.86 1.86 15.71 15.66 36.85 36.76 36.86 29.46 24.91 20.36 15.81 11.76 10.31 9.31 8.46 7.76 7.16 6.66 6.21 5.81 5.46 5.11 4.86 4.61 4.36 4.16 3.96 3.81 3.66 3.56 2.86 2.76 2.61 2.51 2.41 2.31 2.21 2.26 2.36 2.26 2.26 2.19 2.19 2.19 2.24 2.29 2.34 2.34 2.39 2.44 2.49 2.54 2.59 2.66 2.66 2.71 2.76 2.81 2.91 2.91 3.01 3.01 2.99 2.91 2.86 2.89 2.86 2.84 2.79 2.84 2.79 2.69 2.74 2.74 2.69 2.69 2.64 2.64 2.64 2.56 2.76 2.81 2.81 2.76 2.76 2.81 2.76 2.76 2.76 2.76 2.76 2.76 2.76 2.76 2.71 2.71 2.71 2.71 2.71 2.76 2.76 2.76 2.76 2.81 2.76 2.81 2.81 2.81 2.81 2.86 2.81 2.86 2.81 2.69 2.64 2.69 2.69 2.66 2.71 2.81 2.81 2.81 2.81 2.86 2.91 2.91 2.96 3.01 3.01 3.06 3.11 3.16 3.21 3.16 3.11 3.06 3.01 2.96 2.86 2.81 2.81 2.76 2.71 2.66 2.56 2.61 2.56 2.56 2.41 2.41 2.41 2.36 2.36 2.36 2.31 2.26 2.26 2.26 2.21 2.21 2.16 2.11 2.16 2.16 12.4322 -0.937254 -0.417339 12.4322 -0.937254 -0.417339 4.29497e+09 pippo 4.29497e+09
ODOM 12.4322 -0.937254 -0.417339 0 0 0 3.13177 pippo 3.13177
NEFF 199.089
ODOM 12.5274 -0.992012 -0.485878 0 0 0 4.29497e+09 pippo 4.29497e+09
ODOM 12.6314 -1.04079 -0.575878 0 0 0 4.29497e+09 pippo 4.29497e+09
ODOM 12.7092 -1.10405 -0.670569 0 0 0 4.29497e+09 pippo 4.29497e+09
ODOM 12.8013 -1.18058 -0.761174 0 0 0 4.29497e+09 pippo 4.29497e+09
ODOM 12.8807 -1.25981 -0.852494 0 0 0 4.29497e+09 pippo 4.29497e+09
ODOM 12.9615 -1.33512 -0.946259 0 0 0 4.29497e+09 pippo 4.29497e+09
FLASER 180 2.04 2.09 2.04 1.99 1.94 1.89 1.89 1.84 1.84 1.79 1.79 1.74 1.69 1.69 1.64 1.64 1.64 1.59 1.59 1.54 1.54 1.59 1.56 1.61 1.66 1.71 1.61 1.61 1.71 1.81 1.96 2.11 2.21 3.31 3.51 3.71 4.01 4.36 4.71 5.11 5.66 6.36 7.11 8.11 9.46 11.51 15.36 15.31 15.41 36.51 36.51 36.41 29.06 20.26 19.91 10.71 8.86 7.71 6.81 6.11 5.51 5.06 4.66 4.31 3.96 3.71 3.46 3.26 2.31 2.21 2.01 1.91 1.76 1.66 1.61 1.66 1.71 1.61 1.64 1.59 1.59 1.59 1.59 1.59 1.64 1.64 1.69 1.69 1.69 1.74 1.74 1.79 1.84 1.84 1.89 1.89 1.94 1.99 2.04 2.09 2.04 2.09 2.19 2.24 2.26 2.26 2.31 2.39 2.34 2.29 2.29 2.29 2.24 2.24 2.24 2.19 2.19 2.14 2.14 2.09 2.09 2.09 2.09 2.09 2.04 2.04 2.04 2.04 1.99 2.04 2.04 1.99 1.96 2.21 2.16 2.16 2.16 2.21 2.21 2.21 2.21 2.16 2.16 2.16 2.16 2.21 2.21 2.21 2.21 2.21 2.21 2.21 2.21 2.26 2.21 2.21 2.26 2.26 2.31 2.31 2.36 2.36 2.36 2.36 2.41 2.41 2.41 2.46 2.46 2.49 2.51 2.41 2.36 2.34 2.39 2.39 2.44 2.44 2.54 2.54 12.9549 -1.33363 -0.940009 12.9549 -1.33363 -0.940009 4.29497e+09 pippo 4.29497e+09
ODOM 12.9549 -1.33363 -0.940009 0 0 0 -11.6031 pippo -11.6031
NEFF 199.058
ODOM 13.0123 -1.42097 -1.03111 0 0 0 4.29497e+09 pippo 4.29497e+09
ODOM 13.0594 -1.52738 -1.12109 0 0 0 4.29497e+09 pippo 4.29497e+09
ODOM 13.1068 -1.63323 -1.21699 0 0 0 4.29497e+09 pippo 4.29497e+09
ODOM 13.1262 -1.72755 -1.30694 0 0 0 4.29497e+09 pippo 4.29497e+09
ODOM 13.1525 -1.86123 -1.39794 0 0 0 4.29497e+09 pippo 4.29497e+09
ODOM 13.1655 -1.97229 -1.48894 0 0 0 4.29497e+09 pippo 4.29497e+09
FLASER 180 4.95 4.45 4.05 3.65 3.3 3.05 2.85 2.65 2.5 2.35 2.25 2.15 2.05 1.98 1.93 1.8 1.75 1.75 1.65 1.58 1.5 1.53 1.48 1.43 1.38 1.33 1.33 1.28 1.23 1.28 1.28 1.33 1.3 1.35 1.3 1.3 1.25 1.25 1.25 1.35 1.35 1.4 1.4 1.5 1.5 1.55 1.6 1.65 1.7 1.75 1.8 1.95 2.58 2.58 2.68 2.7 2.8 2.95 3.05 3.2 3.35 3.45 3.6 3.85 4.1 4.35 4.6 4.9 5.25 5.75 6.2 6.75 7.45 8.2 9.35 10.75 14.75 14.75 14.7 51.05 35.9 35.85 35.85 28.45 23.9 18.5 9.05 7.35 6.35 5.5 4.85 4.35 3.95 3.6 3.25 3 2.8 1.8 1.55 1.45 1.4 1.25 1.15 1.1 1 0.95 0.95 0.95 1 1.05 0.95 0.95 0.95 0.98 0.93 0.93 0.88 0.88 0.93 0.93 0.93 0.93 0.98 0.98 0.98 1.03 1.08 1.03 1.08 1.13 1.08 1.13 1.18 1.18 1.18 1.28 1.28 1.28 1.33 1.38 1.43 1.43 1.48 1.48 1.5 1.55 1.6 1.7 1.75 1.83 1.83 1.78 1.83 1.78 1.83 1.78 1.78 1.78 1.73 1.73 1.73 1.73 1.73 1.73 1.73 1.73 1.73 1.68 1.68 1.68 1.68 1.68 1.73 1.73 1.68 1.68 1.68 1.68 1.68 1.73 13.1704 -2.01213 -1.48894 13.1704 -2.01213 -1.48894 4.29497e+09 pippo 4.29497e+09
ODOM 13.1704 -2.01213 -1.48894 0 0 0 -14.2957 pippo -14.2957
NEFF 199.032
ODOM 13.178 -2.12334 -1.58405 0 0 0 4.29497e+09 pippo 4.29497e+09
ODOM 13.1635 -2.24218 -1.66608 0 0 0 4.29497e+09 pippo 4.29497e+09
ODOM 13.1505 -2.34334 -1.66608 0 0 0 4.29497e+09 pippo 4.29497e+09
ODOM 13.1302 -2.45877 -1.66608 0 0 0 4.29497e+09 pippo 4.29497e+09
ODOM 13.1297 -2.56557 -1.67389 0 0 0 4.29497e+09 pippo 4.29497e+09
ODOM 13.1153 -2.64578 -1.67487 0 0 0 4.29497e+09 pippo 4.29497e+09
ODOM 13.1107 -2.762 -1.67975 0 0 0 4.29497e+09 pippo 4.29497e+09
ODOM 13.0802 -2.90129 -1.68122 0 0 0 4.29497e+09 pippo 4.29497e+09
ODOM 13.0727 -2.95869 -1.68219 0 0 0 4.29497e+09 pippo 4.29497e+09
ODOM 13.0711 -3.00418 -1.68146 0 0 0 4.29497e+09 pippo 4.29497e+09
FLASER 180 0.81 0.86 0.86 0.86 0.86 0.86 0.86 0.86 0.86 0.86 0.86 0.86 0.91 0.91 0.91 0.91 0.91 0.91 0.96 0.91 0.96 0.96 0.96 0.96 0.96 0.96 1.01 1.01 0.96 1.01 1.06 1.06 1.06 1.06 1.11 1.44 1.47 1.47 1.47 1.49 1.49 1.54 1.57 1.59 1.59 1.59 1.64 1.69 1.69 1.74 1.77 1.79 1.84 1.84 1.89 1.94 1.99 2.04 2.14 2.14 2.19 2.24 2.29 2.39 2.49 2.54 2.64 2.76 2.86 2.96 3.11 3.26 3.41 3.56 3.76 3.96 4.21 4.41 4.81 5.16 5.51 5.96 7.16 7.16 7.96 8.96 13.76 13.71 13.66 13.71 51.06 34.81 34.86 35.01 27.46 22.91 18.31 9.46 8.11 6.66 5.81 5.11 4.56 4.16 3.81 3.51 3.21 3.01 2.86 2.61 2.46 2.36 2.21 2.11 1.96 1.91 1.81 1.79 1.66 1.66 1.59 1.54 1.49 1.49 1.39 1.39 1.29 1.29 1.24 1.19 1.19 1.19 1.14 0.76 0.76 0.76 0.66 0.66 0.66 0.66 0.61 0.66 0.66 0.61 0.61 0.61 0.56 0.56 0.56 0.51 0.56 0.56 0.56 0.51 0.51 0.51 0.51 0.46 0.51 0.46 0.46 0.46 0.46 0.51 0.46 0.46 0.46 0.46 0.46 0.46 0.46 0.46 0.46 0.41 0.41 0.41 0.41 0.41 0.41 0.46 13.0599 -2.98297 -1.6799 13.0599 -2.98297 -1.6799 4.29497e+09 pippo 4.29497e+09
ODOM 13.0599 -2.98297 -1.6799 0 0 0 -45.2973 pippo -45.2973
NEFF 198.86
ODOM 13.0548 -3.02636 -1.68112 0 0 0 4.29497e+09 pippo 4.29497e+09
ODOM 13.0495 -3.08854 -1.68307 0 0 0 4.29497e+09 pippo 4.29497e+09
ODOM 13.043 -3.14387 -1.68635 0 0 0 4.29497e+09 pippo 4.29497e+09
ODOM 13.044 -3.20054 -1.68256 0 0 0 4.29497e+09 pippo 4.29497e+09
ODOM 13.0326 -3.25491 -1.68256 0 0 0 4.29497e+09 pippo 4.29497e+09
ODOM 13.0264 -3.30309 -1.68256 0 0 0 4.29497e+09 pippo 4.29497e+09
ODOM 13.0241 -3.35721 -1.68554 0 0 0 4.29497e+09 pippo 4.29497e+09
ODOM 13.0213 -3.44459 -1.68454 0 0 0 4.29497e+09 pippo 4.29497e+09
ODOM 13.0087 -3.51225 -1.68603 0 0 0 4.29497e+09 pippo 4.29497e+09
ODOM 12.9958 -3.59698 -1.68774 0 0 0 4.29497e+09 pippo 4.29497e+09
ODOM 12.9807 -3.62826 -1.68725 0 0 0 4.29497e+09 pippo 4.29497e+09
ODOM 12.9697 -3.66274 -1.68815 0 0 0 4.29497e+09 pippo 4.29497e+09
ODOM 12.9738 -3.714 -1.68815 0 0 0 4.29497e+09 pippo 4.29497e+09
ODOM 12.9787 -3.74569 -1.69206 0 0 0 4.29497e+09 pippo 4.29497e+09
ODOM 12.967 -3.81013 -1.69684 0 0 0 4.29497e+09 pippo 4.29497e+09
ODOM 12.9492 -3.91269 -1.6976 0 0 0 4.29497e+09 pippo 4.29497e+09
ODOM 12.9405 -3.95368 -1.69955 0 0 0 4.29497e+09 pippo 4.29497e+09
ODOM 12.9308 -4.02665 -1.6998 0 0 0 4.29497e+09 pippo 4.29497e+09
FLASER 180 1.12 1.12 1.12 1.12 1.12 1.12 1.12 1.12 1.12 1.12 1.17 1.12 1.17 1.17 1.12 1.17 1.17 1.14 1.17 1.14 1.17 1.19 1.14 1.17 1.19 1.19 1.22 1.24 1.19 1.24 1.24 1.24 1.24 1.24 1.24 1.29 1.29 1.29 1.34 1.39 1.39 1.39 1.39 1.39 1.44 1.49 1.49 1.54 1.54 1.59 1.59 1.64 1.69 1.74 1.74 1.79 1.79 1.89 1.94 1.94 2.04 2.09 2.14 2.24 2.29 2.34 2.44 2.51 2.64 2.66 2.76 2.86 3.06 3.16 3.36 3.51 3.76 4.01 4.26 4.51 4.81 5.21 6.11 6.16 6.76 7.51 8.46 12.71 12.71 12.66 12.61 51.06 33.86 33.81 33.81 28.26 26.41 11.01 10.91 8.46 7.21 6.26 5.66 5.06 4.56 4.16 3.81 3.56 3.36 3.11 2.91 2.76 2.56 2.46 2.36 2.21 2.11 2.01 1.99 1.94 1.84 1.79 1.74 1.69 1.64 1.59 1.54 1.49 1.44 1.39 1.39 1.34 1.29 1.24 1.24 1.19 1.19 1.14 1.14 1.09 1.04 1.09 1.04 1.04 1.04 0.99 0.99 0.94 0.94 0.99 0.94 0.94 0.94 0.89 0.94 0.89 0.89 0.89 0.89 0.84 0.84 0.84 0.84 0.84 0.84 0.84 0.84 0.79 0.79 0.79 0.84 0.79 0.79 0.79 0.82 0.82 0.82 0.82 0.82 0.82 12.9297 -3.99301 -1.71074 12.9297 -3.99301 -1.71074 4.29497e+09 pippo 4.29497e+09
ODOM 12.9297 -3.99301 -1.71074 0 0 0 -44.9422 pippo -44.9422
NEFF 198.867
ODOM 12.9199 -4.06962 -1.71074 0 0 0 4.29497e+09 pippo 4.29497e+09
ODOM 12.9059 -4.13846 -1.71245 0 0 0 4.29497e+09 pippo 4.29497e+09
ODOM 12.8849 -4.21862 -1.71294 0 0 0 4.29497e+09 pippo 4.29497e+09
ODOM 12.88 -4.32754 -1.72319 0 0 0 4.29497e+09 pippo 4.29497e+09
ODOM 12.8619 -4.40207 -1.72319 0 0 0 4.29497e+09 pippo 4.29497e+09
ODOM 12.8601 -4.46226 -1.72685 0 0 0 4.29497e+09 pippo 4.29497e+09
ODOM 12.8422 -4.53959 -1.72685 0 0 0 4.29497e+09 pippo 4.29497e+09
ODOM 12.8285 -4.5907 -1.72636 0 0 0 4.29497e+09 pippo 4.29497e+09
ODOM 12.8126 -4.67005 -1.72636 0 0 0 4.29497e+09 pippo 4.29497e+09
ODOM 12.8019 -4.74169 -1.72832 0 0 0 4.29497e+09 pippo 4.29497e+09
ODOM 12.7978 -4.81119 -1.73149 0 0 0 4.29497e+09 pippo 4.29497e+09
ODOM 12.786 -4.869 -1.7354 0 0 0 4.29497e+09 pippo 4.29497e+09
ODOM 12.7732 -4.95193 -1.73845 0 0 0 4.29497e+09 pippo 4.29497e+09
ODOM 12.7551 -5.03889 -1.73869 0 0 0 4.29497e+09 pippo 4.29497e+09
FLASER 180 1.02 0.97 1.02 1.02 1.02 0.97 0.97 0.97 0.97 1.02 1.02 1.02 1.07 0.99 1.02 0.99 0.99 1.04 0.99 0.99 1.07 1.07 1.07 1.09 1.09 1.09 1.04 1.09 1.09 1.09 1.14 1.14 1.14 1.14 1.14 1.14 1.14 1.19 1.19 1.24 1.24 1.24 1.24 1.29 1.29 1.34 1.34 1.34 1.39 1.39 1.39 1.44 1.49 1.49 1.54 1.59 1.64 1.64 1.69 1.74 1.79 1.84 1.89 1.94 1.99 2.04 2.14 2.14 2.24 2.29 2.39 2.51 2.61 2.71 2.86 3.01 3.11 3.31 3.51 3.66 3.96 4.16 5.11 5.06 5.31 5.81 6.36 7.11 11.66 11.66 11.61 11.56 11.56 51.06 46.81 32.71 46.76 25.61 25.41 19.86 15.56 11.66 7.71 6.96 6.06 5.46 4.91 4.56 4.21 3.91 3.66 3.41 3.21 3.06 2.81 2.76 2.61 2.51 2.36 2.31 2.24 2.14 2.09 1.99 1.94 1.84 1.79 1.74 1.69 1.69 1.64 1.59 1.54 1.54 1.49 1.44 1.39 1.34 1.39 1.34 1.34 1.24 1.24 1.29 1.19 1.19 1.19 1.19 1.14 1.14 1.09 1.09 1.04 1.09 1.04 1.04 1.04 1.04 1.04 1.02 1.04 0.99 0.99 0.99 0.97 1.02 0.94 0.99 0.94 0.94 0.97 0.94 0.97 0.97 0.94 0.92 0.97 0.89 0.92 0.92 12.7611 -5.03245 -1.74131 12.7611 -5.03245 -1.74131 4.29497e+09 pippo 4.29497e+09
ODOM 12.7611 -5.03245 -1.74131 0 0 0 -44.7704 pippo -44.7704
NEFF 198.641
ODOM 12.7437 -5.13814 -1.74375 0 0 0 4.29497e+09 pippo 4.29497e+09
ODOM 12.7303 -5.2133 -1.74936 0 0 0 4.29497e+09 pippo 4.29497e+09
ODOM 12.7082 -5.28191 -1.74936 0 0 0 4.29497e+09 pippo 4.29497e+09
ODOM 12.6887 -5.37517 -1.74936 0 0 0 4.29497e+09 pippo 4.29497e+09
ODOM 12.67 -5.45072 -1.75425 0 0 0 4.29497e+09 pippo 4.29497e+09
ODOM 12.6544 -5.53282 -1.75425 0 0 0 4.29497e+09 pippo 4.29497e+09
ODOM 12.605 -5.71071 -1.75415 0 0 0 4.29497e+09 pippo 4.29497e+09
ODOM 12.5922 -5.81668 -1.76031 0 0 0 4.29497e+09 pippo 4.29497e+09
ODOM 12.5811 -5.89433 -1.74593 0 0 0 4.29497e+09 pippo 4.29497e+09
ODOM 12.5621 -5.99373 -1.71689 0 0 0 4.29497e+09 pippo 4.29497e+09
ODOM 12.5571 -6.06899 -1.68903 0 0 0 4.29497e+09 pippo 4.29497e+09
FLASER 180 0.92 0.87 0.87 0.87 0.92 0.87 0.87 0.92 0.92 0.92 0.84 0.89 0.89 0.89 0.89 0.89 0.89 0.89 0.89 0.89 0.94 0.94 0.94 0.94 0.89 0.94 0.94 0.94 0.99 0.99 0.99 1.04 0.99 0.99 0.99 1.04 1.04 1.09 1.09 1.09 1.09 1.14 1.14 1.19 1.19 1.19 1.24 1.24 1.29 1.29 1.34 1.34 1.34 1.39 1.44 1.49 1.49 1.54 1.59 1.64 1.69 1.74 1.79 1.84 1.94 1.99 2.09 2.09 2.19 2.29 2.44 2.51 2.61 2.76 2.86 3.01 3.91 3.99 3.99 3.96 4.26 4.66 5.11 5.56 6.21 10.61 10.61 10.56 10.56 10.51 51.06 31.71 31.66 31.66 29.96 24.31 19.76 15.21 14.36 11.01 10.56 6.86 6.21 5.86 5.31 4.81 4.46 4.11 3.86 3.66 3.41 3.26 3.11 3.01 2.86 2.76 2.61 2.51 2.41 2.34 2.29 2.19 2.14 2.09 1.99 1.94 1.89 1.89 1.84 1.79 1.74 1.74 1.64 1.59 1.59 1.54 1.54 1.49 1.49 1.44 1.44 1.39 1.34 1.34 1.34 1.29 1.29 1.29 1.29 1.24 1.24 1.19 1.24 1.19 1.19 1.19 1.14 1.14 1.14 1.14 1.09 1.14 1.09 1.09 1.09 1.09 1.09 1.04 1.09 1.07 1.07 1.07 1.09 1.07 1.04 1.07 1.07 1.07 1.07 1.02 12.5291 -6.14019 -1.68435 12.5291 -6.14019 -1.68435 4.29497e+09 pippo 4.29497e+09
ODOM 12.5291 -6.14019 -1.68435 0 0 0 1.49949 pippo 1.49949
NEFF 198.514
ODOM 12.5062 -6.24737 -1.65716 0 0 0 4.29497e+09 pippo 4.29497e+09
ODOM 12.5108 -6.33159 -1.63316 0 0 0 4.29497e+09 pippo 4.29497e+09
ODOM 12.4848 -6.42633 -1.6001 0 0 0 4.29497e+09 pippo 4.29497e+09
ODOM 12.4893 -6.50536 -1.57715 0 0 0 4.29497e+09 pippo 4.29497e+09
ODOM 12.4836 -6.62108 -1.58106 0 0 0 4.29497e+09 pippo 4.29497e+09
ODOM 12.4801 -6.72384 -1.58106 0 0 0 4.29497e+09 pippo 4.29497e+09
ODOM 12.4791 -6.82365 -1.5857 0 0 0 4.29497e+09 pippo 4.29497e+09
ODOM 12.4757 -6.94107 -1.5857 0 0 0 4.29497e+09 pippo 4.29497e+09
ODOM 12.4666 -7.04175 -1.5896 0 0 0 4.29497e+09 pippo 4.29497e+09
ODOM 12.4645 -7.15561 -1.5918 0 0 0 4.29497e+09 pippo 4.29497e+09
FLASER 180 0.92 0.92 0.87 0.92 0.92 0.92 0.92 0.92 0.97 0.94 0.89 0.89 0.89 0.94 0.99 0.99 0.94 0.94 0.99 0.99 0.99 0.99 0.99 0.99 0.99 0.99 1.04 1.04 1.04 1.09 1.04 1.09 1.09 1.14 1.19 1.14 1.19 1.19 1.19 1.24 1.24 1.24 1.24 1.29 1.39 1.34 1.39 1.44 1.44 1.49 1.49 1.54 1.64 1.64 1.69 1.74 1.79 1.79 1.89 1.94 2.04 2.09 2.14 2.71 2.81 2.91 3.04 3.04 3.04 3.04 3.16 3.31 3.56 3.81 4.06 4.41 4.81 5.26 5.86 9.56 9.61 9.56 9.56 9.56 9.51 51.06 44.61 30.66 44.56 26.11 23.31 18.66 14.21 14.16 10.46 9.56 9.56 6.16 5.41 4.91 4.81 4.56 4.04 3.81 3.71 3.41 3.19 3.06 2.89 2.76 2.71 2.56 2.46 2.39 2.34 2.16 2.16 2.09 2.09 1.94 1.89 1.89 1.84 1.74 1.74 1.69 1.69 1.64 1.54 1.54 1.49 1.49 1.44 1.39 1.44 1.39 1.39 1.39 1.34 1.29 1.29 1.24 1.29 1.24 1.19 1.19 1.19 1.19 1.14 1.14 1.14 1.14 1.14 1.14 1.14 1.09 1.09 1.09 1.09 1.09 1.09 1.04 1.04 1.04 1.04 1.02 1.04 1.07 1.07 1.04 1.02 1.07 1.02 1.07 1.07 1.07 1.02 1.07 1.02 1.02 12.4699 -7.14074 -1.59805 12.4699 -7.14074 -1.59805 4.29497e+09 pippo 4.29497e+09
ODOM 12.4699 -7.14074 -1.59805 0 0 0 -17.073 pippo -17.073
NEFF 198.455
ODOM 12.4663 -7.24563 -1.59903 0 0 0 4.29497e+09 pippo 4.29497e+09
ODOM 12.4644 -7.37731 -1.60293 0 0 0 4.29497e+09 pippo 4.29497e+09
ODOM 12.4506 -7.46883 -1.60293 0 0 0 4.29497e+09 pippo 4.29497e+09
ODOM 12.4539 -7.56484 -1.60977 0 0 0 4.29497e+09 pippo 4.29497e+09
ODOM 12.4406 -7.69365 -1.6138 0 0 0 4.29497e+09 pippo 4.29497e+09
ODOM 12.4414 -7.79867 -1.61465 0 0 0 4.29497e+09 pippo 4.29497e+09
ODOM 12.4325 -7.93875 -1.61856 0 0 0 4.29497e+09 pippo 4.29497e+09
ODOM 12.4322 -8.01698 -1.61856 0 0 0 4.29497e+09 pippo 4.29497e+09
ODOM 12.4138 -8.14682 -1.62051 0 0 0 4.29497e+09 pippo 4.29497e+09
FLASER 180 0.92 0.92 0.92 0.97 0.92 0.92 0.97 0.97 0.97 0.94 0.97 0.94 0.94 0.94 0.99 0.94 0.94 0.94 0.99 0.99 1.04 1.04 0.99 0.99 0.99 1.04 0.99 1.04 1.04 1.09 1.09 1.14 1.14 1.14 1.19 1.14 1.19 1.19 1.19 1.24 1.19 1.29 1.29 1.29 1.34 1.44 1.64 1.69 1.74 1.79 1.79 1.84 1.89 1.94 1.99 2.04 2.14 2.19 2.14 2.14 2.09 2.09 2.12 2.19 2.24 2.39 2.46 2.61 2.71 2.76 2.96 3.16 3.36 3.56 3.76 4.06 4.36 4.81 7.61 8.61 8.56 8.56 8.56 8.51 8.51 8.51 51.06 29.71 29.76 29.86 29.66 22.31 21.46 17.06 13.16 12.31 9.46 8.61 8.56 7.86 8.76 4.71 4.36 4.01 3.86 3.66 3.41 3.31 3.06 2.91 2.86 2.76 2.66 2.49 2.36 2.29 2.19 2.14 2.04 1.99 1.94 1.94 1.84 1.84 1.74 1.69 1.69 1.64 1.59 1.59 1.54 1.54 1.44 1.44 1.44 1.39 1.34 1.34 1.34 1.34 1.29 1.24 1.29 1.24 1.24 1.24 1.24 1.14 1.19 1.14 1.14 1.14 1.14 1.14 1.09 1.09 1.09 1.04 1.04 1.09 1.04 1.04 1.04 1.04 1.04 0.99 1.04 1.07 1.02 1.02 1.02 1.02 0.99 0.99 1.02 1.02 1.02 1.02 1.02 1.02 12.4061 -8.11903 -1.61582 12.4061 -8.11903 -1.61582 4.29497e+09 pippo 4.29497e+09
ODOM 12.4061 -8.11903 -1.61582 0 0 0 -17.648 pippo -17.648
NEFF 198.3
ODOM 12.4145 -8.21594 -1.62351 0 0 0 4.29497e+09 pippo 4.29497e+09
ODOM 12.3963 -8.34871 -1.62498 0 0 0 4.29497e+09 pippo 4.29497e+09
ODOM 12.3837 -8.43575 -1.62498 0 0 0 4.29497e+09 pippo 4.29497e+09
ODOM 12.3755 -8.57282 -1.62498 0 0 0 4.29497e+09 pippo 4.29497e+09
ODOM 12.3681 -8.66893 -1.62937 0 0 0 4.29497e+09 pippo 4.29497e+09
ODOM 12.3603 -8.80254 -1.63328 0 0 0 4.29497e+09 pippo 4.29497e+09
ODOM 12.3518 -8.89642 -1.63474 0 0 0 4.29497e+09 pippo 4.29497e+09
ODOM 12.3435 -8.98746 -1.63474 0 0 0 4.29497e+09 pippo 4.29497e+09
ODOM 12.3394 -9.16343 -1.64256 0 0 0 4.29497e+09 pippo 4.29497e+09
FLASER 180 1.07 1.07 1.12 1.12 1.12 1.12 1.12 1.12 1.17 1.17 1.14 1.14 1.17 1.14 1.17 1.14 1.14 1.14 1.19 1.19 1.19 1.19 1.19 1.24 1.19 1.24 1.19 1.24 1.24 1.29 1.29 1.29 1.29 1.34 1.34 1.34 1.39 1.36 1.34 1.34 1.34 1.29 1.29 1.29 1.24 1.29 1.34 1.39 1.39 1.39 1.44 1.49 1.49 1.54 1.59 1.64 1.64 1.74 1.79 1.84 1.89 1.94 1.99 2.09 2.19 2.24 2.34 2.41 2.51 2.61 2.76 2.91 3.06 3.26 3.46 3.71 5.81 7.66 6.66 7.61 7.56 7.56 7.56 7.56 7.51 7.46 7.56 10.51 51.06 42.56 28.61 42.61 23.06 21.26 16.71 16.71 12.16 11.16 10.46 7.96 7.56 7.61 6.81 7.71 7.81 3.86 3.66 3.41 3.26 3.06 2.94 2.91 2.81 2.71 2.59 2.51 2.41 2.36 2.19 2.14 2.14 1.99 1.94 1.94 1.94 1.89 1.84 1.79 1.74 1.64 1.56 1.54 1.54 1.49 1.49 1.44 1.44 1.39 1.34 1.29 1.29 1.29 1.29 1.29 1.24 1.19 1.24 1.19 1.19 1.19 1.14 1.14 1.14 1.09 1.09 1.14 1.09 1.09 1.09 1.09 1.09 1.04 1.04 1.04 1.04 1.04 0.99 1.04 0.99 0.99 1.02 1.02 0.99 1.04 1.02 1.07 1.07 1.02 1.02 1.07 12.3413 -9.16041 -1.65037 12.3413 -9.16041 -1.65037 4.29497e+09 pippo 4.29497e+09
ODOM 12.3413 -9.16041 -1.65037 0 0 0 -41.8985 pippo -41.8985
NEFF 198.264
ODOM 12.3216 -9.27055 -1.65135 0 0 0 4.29497e+09 pippo 4.29497e+09
ODOM 12.3276 -9.37272 -1.65916 0 0 0 4.29497e+09 pippo 4.29497e+09
ODOM 12.2974 -9.50272 -1.65916 0 0 0 4.29497e+09 pippo 4.29497e+09
ODOM 12.2876 -9.62288 -1.65916 0 0 0 4.29497e+09 pippo 4.29497e+09
ODOM 12.2757 -9.73326 -1.6594 0 0 0 4.29497e+09 pippo 4.29497e+09
ODOM 12.2574 -9.84295 -1.65891 0 0 0 4.29497e+09 pippo 4.29497e+09
ODOM 12.2554 -9.98339 -1.67454 0 0 0 4.29497e+09 pippo 4.29497e+09
ODOM 12.2339 -10.0902 -1.66673 0 0 0 4.29497e+09 pippo 4.29497e+09
ODOM 12.2254 -10.2176 -1.67454 0 0 0 4.29497e+09 pippo 4.29497e+09
FLASER 180 0.92 0.87 0.92 0.92 0.92 0.87 0.92 0.97 0.92 0.89 0.87 0.92 0.94 0.89 0.92 0.89 0.89 0.94 0.94 0.94 0.94 0.94 0.94 0.94 0.99 0.94 0.99 0.99 0.99 0.99 0.99 1.04 1.04 1.04 1.04 1.04 1.04 1.14 1.09 1.14 1.19 1.14 1.19 1.19 1.19 1.24 1.29 1.29 1.29 1.34 1.34 1.39 1.44 1.44 1.49 1.54 1.59 1.59 1.64 1.69 1.74 1.79 1.84 1.89 1.99 2.04 2.14 2.24 2.34 2.41 2.46 2.61 2.81 6.31 4.76 6.66 6.66 5.61 6.56 6.56 6.51 6.46 6.46 6.46 6.41 6.41 6.41 6.56 8.66 51.06 41.46 27.51 41.56 26.11 20.21 20.21 15.61 13.91 11.06 11.06 9.36 8.51 6.91 6.51 6.56 6.61 5.81 5.71 6.91 4.86 4.91 7.06 6.71 2.81 2.71 2.61 2.51 2.36 2.26 2.21 2.14 2.14 2.04 1.94 2.04 1.91 1.94 1.89 1.76 1.79 1.79 1.71 1.74 1.64 1.59 1.59 1.54 1.54 1.49 1.49 1.44 1.44 1.39 1.29 1.34 1.34 1.39 1.34 1.34 1.24 1.24 1.19 1.27 1.24 1.19 1.19 1.19 1.19 1.14 1.19 1.19 1.17 1.14 1.17 1.14 1.14 1.14 1.09 1.12 1.14 1.12 1.07 1.07 1.04 1.06 1.04 1.07 1.07 1.07 1.07 12.2181 -10.2205 -1.66673 12.2181 -10.2205 -1.66673 4.29497e+09 pippo 4.29497e+09
ODOM 12.2181 -10.2205 -1.66673 0 0 0 1.35238 pippo 1.35238
NEFF 198.27
ODOM 12.2008 -10.3352 -1.66673 0 0 0 4.29497e+09 pippo 4.29497e+09
ODOM 12.1885 -10.4752 -1.676 0 0 0 4.29497e+09 pippo 4.29497e+09
ODOM 12.1722 -10.5835 -1.67503 0 0 0 4.29497e+09 pippo 4.29497e+09
ODOM 12.158 -10.713 -1.676 0 0 0 4.29497e+09 pippo 4.29497e+09
ODOM 12.1427 -10.8272 -1.6804 0 0 0 4.29497e+09 pippo 4.29497e+09
ODOM 12.1282 -10.958 -1.68162 0 0 0 4.29497e+09 pippo 4.29497e+09
ODOM 12.1162 -11.0644 -1.68552 0 0 0 4.29497e+09 pippo 4.29497e+09
ODOM 12.103 -11.1782 -1.68552 0 0 0 4.29497e+09 pippo 4.29497e+09
ODOM 12.0841 -11.3091 -1.69124 0 0 0 4.29497e+09 pippo 4.29497e+09
FLASER 180 0.81 0.81 0.81 0.86 0.81 0.86 0.81 0.81 0.86 0.86 0.86 0.81 0.86 0.86 0.83 0.83 0.86 0.86 0.83 0.88 0.83 0.83 0.88 0.88 0.88 0.88 0.93 0.88 0.93 0.93 0.93 0.93 0.93 0.98 0.98 0.98 0.98 0.98 1.03 1.03 1.03 1.08 1.08 1.08 1.08 1.13 1.13 1.18 1.23 1.23 1.23 1.23 1.28 1.33 1.33 1.38 1.43 1.43 1.48 1.53 1.58 1.63 1.68 1.68 2.05 2.8 2.9 5 5.05 4.9 5.25 4 3.65 5.15 5.55 5.6 4.5 5.5 5.45 5.45 5.4 5.4 5.35 5.35 5.35 5.3 5.3 5.3 5.35 6.9 9.5 26.45 40.4 26.5 40.4 26.45 19.1 18.35 14.55 14.55 10.1 10 9.1 8.2 8.55 6.3 5.85 5.5 5.45 5.5 5.6 5.6 4.6 5.9 5.95 5.95 5.3 3.8 5.7 5.6 5.65 5.75 3.5 3.2 3 2.95 3.25 3.25 1.93 1.83 1.83 1.78 1.68 1.73 1.63 1.63 1.58 1.53 1.53 1.53 1.48 1.43 1.43 1.38 1.38 1.38 1.38 1.33 1.33 1.28 1.28 1.28 1.26 1.26 1.28 1.28 1.23 1.23 1.26 1.23 1.26 1.23 1.23 1.23 1.18 1.18 1.18 1.18 1.18 1.13 1.18 1.13 1.16 1.21 1.13 1.16 1.16 1.13 1.13 1.13 12.0715 -11.3311 -1.68813 12.0715 -11.3311 -1.68813 4.29497e+09 pippo 4.29497e+09
ODOM 12.0715 -11.3311 -1.68813 0 0 0 -18.2043 pippo -18.2043
NEFF 198.34
ODOM 12.055 -11.4489 -1.69073 0 0 0 4.29497e+09 pippo 4.29497e+09
ODOM 12.0396 -11.559 -1.67856 0 0 0 4.29497e+09 pippo 4.29497e+09
ODOM 12.0354 -11.6821 -1.6699 0 0 0 4.29497e+09 pippo 4.29497e+09
ODOM 12.0174 -11.8138 -1.6429 0 0 0 4.29497e+09 pippo 4.29497e+09
ODOM 11.9918 -12.0425 -1.5859 0 0 0 4.29497e+09 pippo 4.29497e+09
ODOM 11.9998 -12.1711 -1.56093 0 0 0 4.29497e+09 pippo 4.29497e+09
ODOM 11.992 -12.2885 -1.5298 0 0 0 4.29497e+09 pippo 4.29497e+09
ODOM 12.0036 -12.4222 -1.52968 0 0 0 4.29497e+09 pippo 4.29497e+09
FLASER 180 0.82 0.87 0.82 0.87 0.87 0.87 0.87 0.92 0.84 0.87 0.84 0.84 0.89 0.89 0.89 0.89 0.89 0.94 0.94 0.94 0.89 0.94 0.94 0.96 6.81 8.06 7.81 7.66 7.41 7.31 4.21 7.21 3.86 3.86 3.96 4.36 4.36 3.96 4.91 4.91 1.96 1.91 1.91 2.01 4.51 4.51 4.51 5.21 5.21 3.91 3.91 4.01 4.06 4.11 2.66 2.66 4.76 4.71 4.06 4.11 4.66 4.61 3.51 4.46 4.46 4.41 4.41 4.41 4.36 4.31 4.31 4.26 4.31 4.26 4.21 4.21 4.26 4.21 4.31 5.36 6.66 9.11 25.46 39.21 25.36 21.96 24.76 18.01 18.01 14.11 13.51 11.71 9.21 8.91 8.96 8.01 7.16 7.41 6.21 5.16 4.86 4.56 4.41 4.41 4.46 4.51 4.56 4.56 4.66 3.61 4.91 5.11 5.16 4.36 4.86 4.81 3.21 2.81 4.76 4.81 5.66 5.56 5.81 5.76 5.81 2.66 5.96 7.81 7.66 2.26 2.16 2.11 2.11 2.36 2.41 6.51 2.36 6.36 2.41 2.31 2.16 2.21 2.06 2.11 2.01 1.96 2.11 2.06 1.96 1.81 1.16 1.19 1.17 1.19 1.14 1.17 1.12 1.14 1.17 1.09 1.12 1.09 1.12 1.12 1.17 1.12 1.12 1.12 1.12 1.07 1.07 1.07 1.12 1.07 1.12 1.12 1.12 1.07 1.12 1.12 11.9744 -12.4378 -1.5328 11.9744 -12.4378 -1.5328 4.29497e+09 pippo 4.29497e+09
ODOM 11.9744 -12.4378 -1.5328 0 0 0 -37.6565 pippo -37.6565
NEFF 198.27
ODOM 11.955 -12.5435 -1.5328 0 0 0 4.29497e+09 pippo 4.29497e+09
ODOM 11.9692 -12.6672 -1.54159 0 0 0 4.29497e+09 pippo 4.29497e+09
ODOM 11.9768 -12.7973 -1.5411 0 0 0 4.29497e+09 pippo 4.29497e+09
ODOM 11.9793 -12.9011 -1.54208 0 0 0 4.29497e+09 pippo 4.29497e+09
ODOM 11.9719 -13.0368 -1.54599 0 0 0 4.29497e+09 pippo 4.29497e+09
ODOM 11.9934 -13.1517 -1.55184 0 0 0 4.29497e+09 pippo 4.29497e+09
ODOM 11.9969 -13.272 -1.5538 0 0 0 4.29497e+09 pippo 4.29497e+09
ODOM 11.9807 -13.3937 -1.55429 0 0 0 4.29497e+09 pippo 4.29497e+09
ODOM 11.9796 -13.5187 -1.55526 0 0 0 4.29497e+09 pippo 4.29497e+09
FLASER 180 1.61 1.56 1.61 1.56 1.61 1.56 1.61 1.46 1.41 1.41 1.46 1.46 1.41 10.41 10.31 1.81 6.31 3.76 3.41 2.01 3.41 3.91 3.86 3.81 3.36 3.46 4.41 4.36 4.31 4.21 2.11 4.31 4.31 4.41 3.81 3.81 3.81 1.81 1.91 1.96 3.16 3.21 3.21 3.21 3.16 3.11 3.61 3.66 3.96 3.91 3.11 3.16 2.61 2.61 3.66 3.61 3.61 3.56 3.51 3.46 3.51 3.41 3.36 3.36 3.31 3.31 3.31 3.31 3.26 3.26 3.21 3.16 3.21 3.16 3.16 3.19 3.31 3.76 4.31 5.01 5.96 7.36 9.86 24.26 38.16 24.36 38.21 16.31 17.96 16.91 16.06 12.36 11.46 10.71 8.01 7.86 7.86 6.96 7.56 6.21 6.21 5.21 5.01 4.16 3.91 3.71 3.56 3.46 3.39 3.44 3.44 3.46 3.51 3.51 3.56 3.61 3.86 3.96 2.66 2.66 4.16 4.06 3.46 3.91 3.81 3.71 3.76 3.86 3.91 4.71 4.81 4.91 2.41 2.01 1.96 1.96 6.81 6.66 6.61 6.31 6.11 6.06 2.21 5.91 5.86 5.81 1.86 5.71 5.91 5.36 5.66 5.21 1.91 1.76 1.76 1.76 1.81 1.81 1.56 1.51 1.51 1.51 1.51 1.56 1.61 1.76 1.71 1.66 1.61 1.61 1.56 1.61 1.61 1.51 1.44 1.5 1.46 1.51 1.51 1.51 12.0171 -13.4999 -1.55524 12.0171 -13.4999 -1.55524 4.29497e+09 pippo 4.29497e+09
ODOM 12.0171 -13.4999 -1.55524 0 0 0 1.95164 pippo 1.95164
NEFF 197.951
ODOM 12.0183 -13.6178 -1.55914 0 0 0 4.29497e+09 pippo 4.29497e+09
ODOM 12.0201 -13.7503 -1.56305 0 0 0 4.29497e+09 pippo 4.29497e+09
ODOM 12.019 -13.8607 -1.56683 0 0 0 4.29497e+09 pippo 4.29497e+09
ODOM 12.0363 -13.9844 -1.56683 0 0 0 4.29497e+09 pippo 4.29497e+09
ODOM 12.0219 -14.1009 -1.57123 0 0 0 4.29497e+09 pippo 4.29497e+09
ODOM 12.0125 -14.2195 -1.57123 0 0 0 4.29497e+09 pippo 4.29497e+09
ODOM 12.0017 -14.3437 -1.57111 0 0 0 4.29497e+09 pippo 4.29497e+09
ODOM 12.0136 -14.4695 -1.5788 0 0 0 4.29497e+09 pippo 4.29497e+09
ODOM 12.0037 -14.6031 -1.58087 0 0 0 4.29497e+09 pippo 4.29497e+09
FLASER 180 1.61 1.81 1.41 1.41 1.46 1.46 1.46 1.86 3.06 3.16 1.71 1.71 1.86 4.11 2.01 3.91 3.86 3.76 3.76 3.81 2.56 2.51 2.51 2.61 2.61 2.61 2.56 2.61 2.46 2.36 2.86 2.86 1.81 1.81 1.81 1.86 2.36 2.36 2.36 2.51 2.96 2.91 2.86 2.76 2.76 2.66 2.66 2.61 2.61 2.61 2.56 2.46 2.46 2.46 2.36 2.36 2.36 2.31 2.31 2.26 2.26 2.21 2.21 2.21 2.19 2.16 2.11 2.11 2.11 2.09 2.14 2.26 2.36 2.56 2.76 3.06 3.31 3.61 4.06 4.61 5.26 6.21 7.61 9.86 23.16 23.16 23.21 23.21 23.21 10.76 10.71 15.86 11.81 11.36 11.36 9.51 7.16 6.76 6.76 6.81 5.91 6.46 6.26 5.06 5.21 5.01 4.11 4.01 3.81 3.16 3.01 2.91 2.81 2.71 2.66 2.51 2.41 2.39 2.39 2.44 2.44 2.51 2.51 2.51 2.56 2.61 2.66 2.71 2.96 3.01 3.16 3.21 3.26 3.16 3.11 3.11 1.96 1.81 1.81 1.76 2.91 3.01 3.16 3.61 4.26 4.31 4.41 6.01 5.71 5.66 5.51 5.41 5.41 5.41 5.31 5.31 5.26 5.26 5.21 5.26 5.36 4.86 1.61 1.76 1.61 1.56 1.46 1.41 1.46 1.41 1.44 1.56 1.56 1.56 1.46 1.39 1.42 1.41 1.46 1.46 12.0021 -14.6187 -1.58087 12.0021 -14.6187 -1.58087 4.29497e+09 pippo 4.29497e+09
ODOM 12.0021 -14.6187 -1.58087 0 0 0 -16.9251 pippo -16.9251
NEFF 197.708
ODOM 12.0057 -14.7344 -1.58136 0 0 0 4.29497e+09 pippo 4.29497e+09
ODOM 12.0047 -14.9747 -1.58234 0 0 0 4.29497e+09 pippo 4.29497e+09
ODOM 11.9998 -15.1022 -1.59015 0 0 0 4.29497e+09 pippo 4.29497e+09
ODOM 11.9934 -15.2258 -1.59015 0 0 0 4.29497e+09 pippo 4.29497e+09
ODOM 11.9782 -15.3609 -1.591 0 0 0 4.29497e+09 pippo 4.29497e+09
ODOM 11.9613 -15.4905 -1.591 0 0 0 4.29497e+09 pippo 4.29497e+09
ODOM 11.9763 -15.6083 -1.59881 0 0 0 4.29497e+09 pippo 4.29497e+09
ODOM 11.9746 -15.7314 -1.60101 0 0 0 4.29497e+09 pippo 4.29497e+09
FLASER 180 1.56 1.56 1.66 1.66 1.71 1.76 1.76 1.81 1.84 1.89 1.84 1.89 1.94 1.94 1.94 3.01 2.11 2.06 2.11 2.51 1.91 2.11 2.06 2.11 2.06 1.96 1.91 1.81 1.71 1.71 1.66 1.66 1.56 1.51 1.51 1.46 1.41 1.41 1.41 1.36 1.31 1.31 1.26 1.21 1.21 1.16 1.16 1.16 1.16 1.16 1.11 1.09 1.09 1.09 1.09 1.16 1.16 1.21 1.26 1.31 1.36 1.36 1.41 1.51 1.56 1.66 1.66 1.81 1.86 1.96 2.06 2.21 2.36 2.51 2.71 2.91 3.16 3.46 3.81 4.21 4.81 5.41 6.46 7.81 9.96 22.01 35.96 22.06 22.11 35.96 22.11 14.71 14.76 13.86 10.21 5.31 5.41 5.51 6.41 5.96 5.66 5.66 5.71 5.71 4.76 5.36 5.21 4.41 4.06 4.01 4.01 3.81 3.61 3.41 3.06 3.01 2.91 2.81 2.76 2.71 2.56 2.56 2.09 2.04 1.99 1.94 1.89 1.84 1.84 1.79 1.74 1.74 1.74 1.64 1.64 1.59 1.54 1.54 1.49 1.49 1.49 1.54 1.54 1.59 1.66 1.66 1.71 1.76 1.81 1.86 2.01 2.51 2.81 2.46 1.96 2.41 2.41 2.36 2.41 2.36 2.36 2.36 1.66 1.94 1.81 5.01 1.76 5.01 1.71 1.76 1.66 1.66 1.61 1.61 1.51 1.46 1.36 1.34 1.29 1.32 11.9466 -15.7605 -1.60257 11.9466 -15.7605 -1.60257 4.29497e+09 pippo 4.29497e+09
ODOM 11.9466 -15.7605 -1.60257 0 0 0 -18.0645 pippo -18.0645
NEFF 197.233
ODOM 11.9318 -15.8897 -1.60257 0 0 0 4.29497e+09 pippo 4.29497e+09
ODOM 11.929 -16.0187 -1.60843 0 0 0 4.29497e+09 pippo 4.29497e+09
ODOM 11.9066 -16.1469 -1.60941 0 0 0 4.29497e+09 pippo 4.29497e+09
ODOM 11.9036 -16.293 -1.61332 0 0 0 4.29497e+09 pippo 4.29497e+09
ODOM 11.9099 -16.4379 -1.61722 0 0 0 4.29497e+09 pippo 4.29497e+09
ODOM 11.8944 -16.5436 -1.61722 0 0 0 4.29497e+09 pippo 4.29497e+09
ODOM 11.8786 -16.685 -1.61734 0 0 0 4.29497e+09 pippo 4.29497e+09
ODOM 11.8851 -16.8109 -1.62613 0 0 0 4.29497e+09 pippo 4.29497e+09
FLASER 180 0.59 0.64 0.64 0.64 0.64 0.64 0.64 0.64 0.64 0.61 0.61 0.61 0.61 0.61 0.61 0.66 0.61 0.66 0.61 0.61 0.61 0.66 0.66 0.66 0.66 0.66 0.66 0.71 0.71 0.71 0.71 0.71 0.76 0.76 0.76 0.76 0.76 0.76 0.76 0.81 0.81 0.81 0.86 0.86 0.86 0.91 0.91 0.91 0.96 1.01 0.96 1.01 1.06 1.06 1.11 1.16 1.16 1.21 1.26 1.31 1.31 1.36 1.41 1.46 1.51 1.56 1.66 1.76 1.76 1.91 2.01 2.11 2.26 2.36 2.51 2.71 2.91 3.21 3.51 3.81 4.26 4.76 5.46 6.41 7.66 9.56 21.06 35.01 21.01 21.02 35.01 20.41 14.71 13.71 13.71 12.01 9.16 9.11 8.26 7.36 9.66 5.51 5.11 4.71 4.61 4.61 4.66 4.66 4.56 4.01 3.81 4.26 4.16 3.71 3.51 3.36 2.96 3.16 3.06 3.01 2.91 1.86 1.79 1.79 1.79 1.81 1.71 1.74 1.74 1.74 1.76 2.01 2.01 1.96 1.91 1.91 1.86 1.81 1.76 1.76 1.76 1.76 1.71 1.76 1.86 1.86 1.41 1.34 1.39 1.34 1.29 1.29 1.29 1.24 1.29 1.27 1.24 1.24 1.27 1.24 1.24 1.24 1.22 1.22 1.22 1.22 1.22 1.22 1.22 1.22 1.17 1.17 1.17 1.22 1.17 1.17 1.17 1.17 1.17 1.17 11.8765 -16.7661 -1.62145 11.8765 -16.7661 -1.62145 4.29497e+09 pippo 4.29497e+09
ODOM 11.8765 -16.7661 -1.62145 0 0 0 -32.6453 pippo -32.6453
NEFF 197.112
ODOM 11.8539 -16.9004 -1.62096 0 0 0 4.29497e+09 pippo 4.29497e+09
ODOM 11.851 -17.0268 -1.6256 0 0 0 4.29497e+09 pippo 4.29497e+09
ODOM 11.8379 -17.1717 -1.6256 0 0 0 4.29497e+09 pippo 4.29497e+09
ODOM 11.8256 -17.2876 -1.62364 0 0 0 4.29497e+09 pippo 4.29497e+09
ODOM 11.8136 -17.4083 -1.63133 0 0 0 4.29497e+09 pippo 4.29497e+09
ODOM 11.8071 -17.5397 -1.63329 0 0 0 4.29497e+09 pippo 4.29497e+09
ODOM 11.7884 -17.6778 -1.6328 0 0 0 4.29497e+09 pippo 4.29497e+09
ODOM 11.7942 -17.7896 -1.63988 0 0 0 4.29497e+09 pippo 4.29497e+09
FLASER 180 0.59 0.59 0.59 0.64 0.64 0.59 0.64 0.64 0.64 0.64 0.64 0.61 0.61 0.61 0.61 0.61 0.61 0.61 0.66 0.66 0.66 0.61 0.61 0.61 0.66 0.66 0.66 0.66 0.71 0.71 0.71 0.71 0.71 0.71 0.71 0.76 0.76 0.76 0.76 0.81 0.76 0.81 0.81 0.86 0.86 0.86 0.86 0.91 0.96 0.96 0.96 1.01 1.01 1.01 1.06 1.11 1.11 1.16 1.21 1.21 1.26 1.26 1.36 1.41 1.46 1.51 1.56 1.61 1.71 1.76 1.86 1.91 2.06 2.21 2.36 2.46 2.66 2.86 3.11 3.36 3.66 4.06 4.61 5.26 6.06 7.21 8.91 19.96 33.86 20.11 20 33.91 20.06 15.41 12.66 12.71 12.66 12.71 8.16 8.11 8.16 7.26 6.36 7.31 5.46 4.56 4.21 3.96 3.81 3.61 3.64 3.66 3.71 3.71 3.71 3.56 3.51 3.41 2.86 2.81 3.21 3.01 3.01 3.01 2.81 2.76 2.61 2.56 2.46 2.39 2.21 2.11 2.41 2.26 2.21 2.11 2.16 2.21 2.16 2.14 2.11 1.91 2.06 2.01 1.91 1.96 1.76 1.81 1.71 1.71 1.71 1.14 1.09 1.19 1.14 1.14 1.14 1.16 1.19 1.14 1.14 1.14 1.14 1.14 1.14 1.24 1.41 1.39 1.34 1.44 1.39 1.34 1.39 1.34 1.34 1.31 1.34 1.39 1.39 1.39 11.7853 -17.8383 -1.64457 11.7853 -17.8383 -1.64457 4.29497e+09 pippo 4.29497e+09
ODOM 11.7853 -17.8383 -1.64457 0 0 0 3.02627 pippo 3.02627
NEFF 197.129
ODOM 11.7663 -17.9822 -1.64457 0 0 0 4.29497e+09 pippo 4.29497e+09
ODOM 11.7454 -18.0994 -1.64627 0 0 0 4.29497e+09 pippo 4.29497e+09
ODOM 11.7302 -18.2552 -1.64957 0 0 0 4.29497e+09 pippo 4.29497e+09
ODOM 11.7245 -18.4998 -1.65641 0 0 0 4.29497e+09 pippo 4.29497e+09
ODOM 11.6901 -18.6285 -1.65641 0 0 0 4.29497e+09 pippo 4.29497e+09
ODOM 11.6862 -18.7596 -1.65653 0 0 0 4.29497e+09 pippo 4.29497e+09
ODOM 11.6712 -18.8942 -1.66227 0 0 0 4.29497e+09 pippo 4.29497e+09
FLASER 180 0.59 0.59 0.59 0.59 0.59 0.59 0.54 0.54 0.59 0.59 0.59 0.59 0.61 0.56 0.61 0.61 0.56 0.61 0.56 0.61 0.61 0.61 0.61 0.56 0.61 0.61 0.61 0.61 0.66 0.61 0.66 0.66 0.66 0.66 0.71 0.66 0.71 0.71 0.71 0.71 0.76 0.76 0.76 0.76 0.76 0.81 0.86 0.81 0.86 0.91 0.91 0.91 0.91 0.96 0.96 1.01 1.06 1.06 1.11 1.16 1.11 1.16 1.21 1.26 1.31 1.36 1.41 1.46 1.51 1.66 1.66 1.76 1.81 1.96 2.06 2.21 2.31 2.46 2.71 2.91 3.21 3.41 3.81 4.31 4.91 5.66 6.71 13.86 18.96 51.06 19.11 19.01 51.06 25.31 16.66 12.66 11.61 11.61 10.96 10.11 7.61 7.06 7.06 7.16 6.26 7.26 5.36 6.36 6.01 4.41 5.46 5.06 3.36 3.21 3.11 2.96 2.81 2.76 2.66 2.69 2.79 2.79 2.81 2.81 2.81 2.81 2.71 2.66 2.61 2.61 2.51 2.46 2.46 2.26 2.01 2.01 2.36 2.31 2.31 2.21 2.21 2.21 2.16 2.11 2.06 2.06 2.01 2.01 1.96 1.86 1.85 1.81 1.76 1.74 1.76 1.81 1.69 1.71 1.76 1.51 1.51 1.71 1.61 1.56 1.61 1.66 1.66 1.51 1.46 1.61 1.61 1.61 1.46 1.51 1.46 1.51 1.56 1.46 1.41 1.41 11.6856 -18.8187 -1.66341 11.6856 -18.8187 -1.66341 4.29497e+09 pippo 4.29497e+09
ODOM 11.6856 -18.8187 -1.66341 0 0 0 -20.3418 pippo -20.3418
NEFF 197.228
ODOM 11.6722 -18.9309 -1.66585 0 0 0 4.29497e+09 pippo 4.29497e+09
ODOM 11.661 -19.0677 -1.66768 0 0 0 4.29497e+09 pippo 4.29497e+09
ODOM 11.6446 -19.2018 -1.67208 0 0 0 4.29497e+09 pippo 4.29497e+09
ODOM 11.6201 -19.3044 -1.67208 0 0 0 4.29497e+09 pippo 4.29497e+09
ODOM 11.6041 -19.4458 -1.67789 0 0 0 4.29497e+09 pippo 4.29497e+09
ODOM 11.5873 -19.5878 -1.67805 0 0 0 4.29497e+09 pippo 4.29497e+09
ODOM 11.5721 -19.7264 -1.6633 0 0 0 4.29497e+09 pippo 4.29497e+09
ODOM 11.5599 -19.8318 -1.6233 0 0 0 4.29497e+09 pippo 4.29497e+09
FLASER 180 0.49 0.54 0.54 0.59 0.54 0.54 0.54 0.54 0.54 0.51 0.51 0.56 0.51 0.51 0.51 0.51 0.56 0.51 0.56 0.56 0.56 0.61 0.56 0.56 0.61 0.56 0.56 0.56 0.61 0.61 0.61 0.61 0.61 0.66 0.66 0.66 0.66 0.66 0.71 0.71 0.71 0.71 0.71 0.76 0.76 0.76 0.81 0.81 0.81 0.86 0.86 0.91 0.91 0.96 0.96 0.96 1.01 1.01 1.06 1.16 1.16 1.16 1.21 1.26 1.31 1.36 1.41 1.46 1.56 1.66 1.71 1.81 1.96 2.06 2.16 2.31 2.51 2.81 3.06 3.31 3.66 4.11 4.71 5.51 6.61 15.76 17.96 31.86 17.91 17.96 31.86 18.06 15.71 12.41 10.66 10.61 10.66 9.76 10.76 6.91 6.31 6.06 6.11 6.16 5.56 5.21 5.96 6.86 4.36 5.16 4.96 4.71 4.01 3.41 3.76 3.71 3.86 3.51 2.56 2.49 2.44 2.34 2.29 2.24 2.19 2.09 2.09 2.04 1.99 1.94 1.94 1.89 1.89 1.89 1.94 1.96 2.01 2.01 2.11 2.11 2.16 2.06 2.01 1.96 1.96 1.96 1.96 1.91 1.91 1.91 1.86 1.86 1.89 1.84 1.89 1.84 1.84 1.84 1.89 1.79 1.51 1.46 1.51 1.51 1.79 1.79 1.79 1.74 1.74 1.69 1.69 1.69 1.69 1.69 1.64 1.64 1.59 1.52 1.44 1.39 11.5435 -19.8168 -1.6233 11.5435 -19.8168 -1.6233 4.29497e+09 pippo 4.29497e+09
ODOM 11.5435 -19.8168 -1.6233 0 0 0 -22.2637 pippo -22.2637
NEFF 197.138
ODOM 11.5446 -19.9329 -1.57962 0 0 0 4.29497e+09 pippo 4.29497e+09
ODOM 11.53 -20.0716 -1.56497 0 0 0 4.29497e+09 pippo 4.29497e+09
ODOM 11.5294 -20.1873 -1.56839 0 0 0 4.29497e+09 pippo 4.29497e+09
ODOM 11.5359 -20.3113 -1.57034 0 0 0 4.29497e+09 pippo 4.29497e+09
ODOM 11.5228 -20.4605 -1.57034 0 0 0 4.29497e+09 pippo 4.29497e+09
ODOM 11.5322 -20.5796 -1.57474 0 0 0 4.29497e+09 pippo 4.29497e+09
ODOM 11.5143 -20.7117 -1.57742 0 0 0 4.29497e+09 pippo 4.29497e+09
ODOM 11.5142 -20.8495 -1.57742 0 0 0 4.29497e+09 pippo 4.29497e+09
FLASER 180 0.56 0.59 0.59 0.54 0.54 0.59 0.59 0.59 0.64 0.56 0.56 0.56 0.61 0.61 0.61 0.61 0.56 0.61 0.61 0.61 0.61 0.61 0.66 0.61 0.66 0.66 0.66 0.66 0.71 0.71 0.71 0.71 0.71 0.71 0.71 0.71 0.76 0.76 0.81 0.81 0.81 0.81 0.81 0.81 0.81 0.91 0.91 0.96 0.96 0.96 1.01 1.01 1.06 1.06 1.11 1.16 1.16 1.21 1.26 1.31 1.36 1.41 1.41 1.51 1.61 1.66 1.76 1.86 1.91 2.01 2.16 2.31 2.46 2.66 2.86 3.11 3.41 3.66 4.16 4.76 5.41 10.76 12.81 16.86 30.91 30.76 16.91 17.06 28.11 16.96 13.71 11.41 9.56 9.61 9.61 9.66 9.66 9.76 5.91 5.51 5.11 5.04 5.11 5.21 5.21 4.21 4.21 5.76 5.66 4.01 3.76 3.41 3.61 3.96 3.71 3.61 3.16 3.11 2.96 2.56 2.56 2.81 2.66 2.71 2.66 2.61 2.56 2.51 2.36 2.16 2.16 1.96 1.74 1.64 1.59 1.59 1.59 1.54 1.54 1.49 1.49 1.44 1.44 1.44 1.39 1.39 1.39 1.39 1.34 1.34 1.34 1.29 1.32 1.37 1.29 1.29 1.24 1.27 1.24 1.24 1.24 1.29 1.41 1.46 1.41 1.61 1.64 1.69 1.54 1.59 1.54 1.54 1.59 1.54 1.49 1.44 1.34 1.4 1.44 1.54 11.5158 -20.8935 -1.58055 11.5158 -20.8935 -1.58055 4.29497e+09 pippo 4.29497e+09
ODOM 11.5158 -20.8935 -1.58055 0 0 0 -31.8962 pippo -31.8962
NEFF 197.069
ODOM 11.5101 -21.0238 -1.58055 0 0 0 4.29497e+09 pippo 4.29497e+09
ODOM 11.5083 -21.1551 -1.58445 0 0 0 4.29497e+09 pippo 4.29497e+09
ODOM 11.4966 -21.2781 -1.58836 0 0 0 4.29497e+09 pippo 4.29497e+09
ODOM 11.4942 -21.4345 -1.58873 0 0 0 4.29497e+09 pippo 4.29497e+09
ODOM 11.4879 -21.5455 -1.58885 0 0 0 4.29497e+09 pippo 4.29497e+09
ODOM 11.4963 -21.6719 -1.59788 0 0 0 4.29497e+09 pippo 4.29497e+09
ODOM 11.4832 -21.8082 -1.59788 0 0 0 4.29497e+09 pippo 4.29497e+09
ODOM 11.4704 -21.948 -1.59776 0 0 0 4.29497e+09 pippo 4.29497e+09
FLASER 180 0.59 0.59 0.64 0.64 0.59 0.64 0.64 0.64 0.64 0.61 0.61 0.61 0.61 0.66 0.61 0.61 0.61 0.66 0.66 0.66 0.66 0.66 0.66 0.66 0.71 0.66 0.71 0.71 0.71 0.71 0.71 0.76 0.71 0.76 0.76 0.76 0.81 0.81 0.81 0.86 0.81 0.86 0.86 0.91 0.91 0.96 0.96 0.96 0.96 1.01 1.06 1.06 1.11 1.11 1.16 1.21 1.21 1.31 1.31 1.36 1.36 1.46 1.51 1.56 1.61 1.71 1.71 1.86 1.96 2.06 2.16 2.31 2.46 2.56 2.81 3.06 3.31 3.61 4.01 4.46 8.56 9.46 11.01 13.61 15.91 25.86 29.71 15.9 15.91 26.96 15.91 13.11 10.46 8.66 8.56 8.56 8.61 7.71 8.66 6.76 8.71 4.91 4.61 4.31 4.06 4.09 4.14 4.16 4.11 4.11 4.16 3.46 3.31 3.56 3.41 3.26 3.21 3.06 3.01 2.86 2.71 2.46 2.76 2.71 2.66 2.66 2.61 2.56 2.51 2.46 2.46 2.31 2.21 2.26 2.16 2.11 1.91 1.76 1.76 1.76 1.86 2.06 2.01 1.96 1.96 1.91 1.91 1.86 1.91 1.86 1.81 1.81 1.76 1.81 1.61 1.56 1.56 1.56 1.56 1.51 1.51 1.51 1.51 1.51 1.51 1.46 1.46 1.41 1.14 1.14 1.14 1.14 1.17 1.17 1.17 1.17 1.17 1.15 1.17 1.17 11.4444 -21.9167 -1.59776 11.4444 -21.9167 -1.59776 4.29497e+09 pippo 4.29497e+09
ODOM 11.4444 -21.9167 -1.59776 0 0 0 3.02468 pippo 3.02468
NEFF 197.045
ODOM 11.4467 -22.0341 -1.60145 0 0 0 4.29497e+09 pippo 4.29497e+09
ODOM 11.4321 -22.1665 -1.6009 0 0 0 4.29497e+09 pippo 4.29497e+09
ODOM 11.4332 -22.2808 -1.598 0 0 0 4.29497e+09 pippo 4.29497e+09
ODOM 11.4477 -22.3844 -1.5948 0 0 0 4.29497e+09 pippo 4.29497e+09
ODOM 11.43 -22.5143 -1.5987 0 0 0 4.29497e+09 pippo 4.29497e+09
ODOM 11.4227 -22.6409 -1.59773 0 0 0 4.29497e+09 pippo 4.29497e+09
ODOM 11.4194 -22.7892 -1.60163 0 0 0 4.29497e+09 pippo 4.29497e+09
ODOM 11.4004 -22.9265 -1.60163 0 0 0 4.29497e+09 pippo 4.29497e+09
FLASER 180 0.64 0.64 0.64 0.69 0.64 0.64 0.64 0.69 0.69 0.66 0.61 0.66 0.66 0.66 0.66 0.66 0.66 0.66 0.66 0.71 0.71 0.66 0.71 0.71 0.71 0.76 0.71 0.76 0.76 0.71 0.81 0.76 0.76 0.81 0.81 0.81 0.86 0.81 0.86 0.86 0.91 0.91 0.91 0.96 0.91 0.96 1.01 1.01 1.06 1.06 1.11 1.11 1.11 1.16 1.21 1.26 1.31 1.31 1.36 1.41 1.41 1.51 1.51 1.61 1.66 1.71 1.76 1.91 2.01 2.11 2.21 2.41 2.51 2.71 2.91 3.11 3.36 3.61 7.56 7.56 8.21 9.41 10.76 13.56 14.91 24.81 28.71 14.9 14.91 28.71 14.91 13.41 10.61 9.31 7.51 7.51 7.56 7.56 7.61 6.71 7.66 5.71 7.76 4.86 4.86 3.76 3.61 3.41 3.21 3.11 3.09 3.14 3.14 3.16 3.21 3.16 3.11 3.01 3.01 2.96 2.81 2.41 2.36 2.46 2.71 2.51 2.51 2.41 2.36 2.31 2.31 2.26 2.21 2.21 2.16 2.16 2.06 2.06 2.01 1.81 1.66 1.91 1.91 1.91 1.91 1.91 1.86 1.76 1.84 1.84 1.84 1.79 1.79 1.79 1.79 1.74 1.71 1.71 1.74 1.69 1.69 1.64 1.64 1.64 1.54 1.59 1.54 1.51 1.51 1.46 1.46 1.36 1.26 1.29 1.29 1.32 1.39 1.34 1.34 1.39 11.3958 -22.9578 -1.60163 11.3958 -22.9578 -1.60163 4.29497e+09 pippo 4.29497e+09
ODOM 11.3958 -22.9578 -1.60163 0 0 0 -23.3901 pippo -23.3901
NEFF 197.033
ODOM 11.3933 -23.0804 -1.60554 0 0 0 4.29497e+09 pippo 4.29497e+09
ODOM 11.3888 -23.1935 -1.60505 0 0 0 4.29497e+09 pippo 4.29497e+09
ODOM 11.3758 -23.3301 -1.60505 0 0 0 4.29497e+09 pippo 4.29497e+09
ODOM 11.3731 -23.4775 -1.61347 0 0 0 4.29497e+09 pippo 4.29497e+09
ODOM 11.3632 -23.6062 -1.6136 0 0 0 4.29497e+09 pippo 4.29497e+09
ODOM 11.3537 -23.7317 -1.61384 0 0 0 4.29497e+09 pippo 4.29497e+09
ODOM 11.3438 -23.8695 -1.61799 0 0 0 4.29497e+09 pippo 4.29497e+09
ODOM 11.3314 -23.992 -1.61848 0 0 0 4.29497e+09 pippo 4.29497e+09
FLASER 180 0.64 0.64 0.69 0.69 0.64 0.64 0.69 0.64 0.69 0.69 0.66 0.66 0.71 0.66 0.66 0.66 0.71 0.66 0.71 0.66 0.71 0.71 0.71 0.76 0.71 0.71 0.71 0.71 0.71 0.76 0.76 0.76 0.81 0.81 0.81 0.81 0.86 0.81 0.81 0.86 0.91 0.86 0.91 0.91 0.91 1.01 1.01 0.96 1.01 1.06 1.06 1.11 1.16 1.16 1.21 1.21 1.26 1.26 1.31 1.36 1.41 1.46 1.51 1.56 1.61 1.71 1.81 1.86 1.96 2.06 2.21 2.26 2.41 2.56 2.76 6.56 6.56 6.51 6.51 6.56 7.41 8.31 9.71 11.56 13.76 20.01 23.76 14.06 13.82 13.86 27.71 23.81 13.16 10.46 8.96 7.41 6.46 6.46 6.46 6.51 6.56 6.66 5.66 6.66 4.91 5.16 6.76 5.36 3.91 3.86 3.81 3.01 2.81 2.71 2.61 2.51 2.44 2.34 2.29 2.24 2.19 2.17 2.19 2.24 2.26 2.31 2.31 2.31 2.31 2.36 2.36 2.26 2.21 2.26 2.11 2.16 2.11 2.11 2.06 2.01 2.01 1.96 1.66 1.56 1.56 1.56 1.76 1.76 1.86 1.81 1.81 1.79 1.71 1.79 1.69 1.74 1.74 1.69 1.69 1.64 1.69 1.64 1.64 1.64 1.59 1.59 1.59 1.59 1.54 1.49 1.54 1.44 1.49 1.44 1.44 1.39 1.34 1.37 1.32 1.27 11.3056 -23.9956 -1.60883 11.3056 -23.9956 -1.60883 4.29497e+09 pippo 4.29497e+09
ODOM 11.3056 -23.9956 -1.60883 0 0 0 -26.4713 pippo -26.4713
NEFF 197.062
ODOM 11.2992 -24.1247 -1.61078 0 0 0 4.29497e+09 pippo 4.29497e+09
ODOM 11.2902 -24.2497 -1.61029 0 0 0 4.29497e+09 pippo 4.29497e+09
ODOM 11.2785 -24.3751 -1.61322 0 0 0 4.29497e+09 pippo 4.29497e+09
ODOM 11.2736 -24.5081 -1.6142 0 0 0 4.29497e+09 pippo 4.29497e+09
ODOM 11.2504 -24.6551 -1.61628 0 0 0 4.29497e+09 pippo 4.29497e+09
ODOM 11.2546 -24.7651 -1.62226 0 0 0 4.29497e+09 pippo 4.29497e+09
ODOM 11.2513 -24.895 -1.62604 0 0 0 4.29497e+09 pippo 4.29497e+09
ODOM 11.2438 -25.0221 -1.62799 0 0 0 4.29497e+09 pippo 4.29497e+09
